geonameid,name,asciiname,alternatenames,latitude,longitude,feature_class,feature_code,country_code,cc2,admin1_code,admin2_code,admin3_code,admin4_code,population,elevation,dem,timezone,modification_date,lat_long,parentid
2743480,Zwingelspaan,Zwingelspaan,,51.66,4.49583,P,PPL,NL,,06,1709,,,120,,-2,Europe/Amsterdam,2017-03-24,"(4.49583, 51.66)",2743480
2743489,Zwijnsbergen,Zwijnsbergen,,51.52667,5.50694,P,PPL,NL,,06,1948,,,0,,13,Europe/Amsterdam,2017-08-16,"(5.50694, 51.52667)",2743489
2743490,Zwijnsbergen,Zwijnsbergen,,51.64222,5.22194,S,EST,NL,,06,0865,,,0,,10,Europe/Amsterdam,2021-07-06,"(5.22194, 51.64222)",2743490
2743514,Zwartven,Zwartven,,51.3739,5.10937,H,PND,NL,,06,,,,0,,32,Europe/Amsterdam,2009-10-10,"(5.10937, 51.3739)",2749990
2743515,Zwartven,Zwartven,,51.50849,4.73123,L,LCTY,NL,,06,0879,,,0,,8,Europe/Amsterdam,2017-08-16,"(4.73123, 51.50849)",2743515
2743520,Zwart Moerken,Zwart Moerken,,51.53997,4.7099,L,LCTY,NL,,06,0879,,,0,,6,Europe/Amsterdam,2017-08-16,"(4.7099, 51.53997)",2743515
2743522,Zwarte Wiel,Zwarte Wiel,,51.55857,4.30007,H,PND,NL,,06,,,,0,,4,Europe/Amsterdam,2011-04-19,"(4.30007, 51.55857)",2749990
2743530,Zwarte Ven,Zwarte Ven,,51.44763,4.35197,L,LCTY,NL,,06,0873,,,0,,19,Europe/Amsterdam,2017-08-16,"(4.35197, 51.44763)",2743530
2743534,Zwarte Ruiter,Zwarte Ruiter,,51.5907,4.28862,P,PPL,NL,,06,0851,,,0,,0,Europe/Amsterdam,2008-05-02,"(4.28862, 51.5907)",2743534
2743541,Zwartenbergsche Polder,Zwartenbergsche Polder,,51.62108,4.64967,T,PLDR,NL,,06,,,,0,,-1,Europe/Amsterdam,2011-04-19,"(4.64967, 51.62108)",2749990
2743542,Zwartenberg,Zwartenberg,,51.62668,4.63756,P,PPL,NL,,06,0777,,,0,,4,Europe/Amsterdam,2008-02-01,"(4.63756, 51.62668)",2743542
2743549,Zwarte Horst,Zwarte Horst,"Zwarte Horst,Zwarte-Horstweijer",51.26993,5.26038,L,PRK,NL,,06,1724,,,0,,38,Europe/Amsterdam,2017-08-16,"(5.26038, 51.26993)",2743549
2743559,Zwarte Duin,Zwarte Duin,,51.40037,4.37383,T,DUNE,NL,,06,,,,0,,27,Europe/Amsterdam,2011-04-19,"(4.37383, 51.40037)",2749990
2743563,Zwarte Blik,Zwarte Blik,,51.52242,4.60323,L,LCTY,NL,,06,0840,,,0,,10,Europe/Amsterdam,2017-08-16,"(4.60323, 51.52242)",2743563
2743579,Zwaluwmoer,Zwaluwmoer,,51.40228,4.36634,H,PND,NL,,06,,,,0,,19,Europe/Amsterdam,2009-11-27,"(4.36634, 51.40228)",2749990
2743612,Zurenhoek,Zurenhoek,,51.5443,4.34906,L,LCTY,NL,,06,1674,,,0,,-2,Europe/Amsterdam,2017-08-16,"(4.34906, 51.5443)",2743612
2743613,Zurendonk,Zurendonk,,51.5136,4.60475,L,LCTY,NL,,06,0840,,,0,,10,Europe/Amsterdam,2017-08-16,"(4.60475, 51.5136)",2743563
2743614,Zure Maden,Zure Maden,,51.53934,4.37809,L,LCTY,NL,,06,1674,,,0,,2,Europe/Amsterdam,2017-08-16,"(4.37809, 51.53934)",2743612
2743615,Zure Heide,Zure Heide,,51.48269,4.37775,L,LCTY,NL,,06,1674,,,0,,9,Europe/Amsterdam,2017-08-16,"(4.37775, 51.48269)",2743612
2743617,Zundertsche Schijf,Zundertsche Schijf,,51.50228,4.57735,L,LCTY,NL,,06,0840,,,0,,12,Europe/Amsterdam,2017-08-16,"(4.57735, 51.50228)",2743563
2743618,Gemeente Zundert,Gemeente Zundert,"Gemeente Zundert,Zundert",51.47352,4.6418,A,ADM2,NL,,06,0879,,,21988,,7,Europe/Amsterdam,2023-01-31,"(4.6418, 51.47352)",2743515
2743619,Zundert,Zundert,"Groot Zundert,Zjundert,Зюндерт",51.47167,4.65556,P,PPL,NL,,06,0879,,,6835,,11,Europe/Amsterdam,2017-10-17,"(4.65556, 51.47167)",2743515
2743648,Zuid Vlije,Zuid Vlije,,51.63815,4.23637,H,CHNM,NL,,06,,,,0,,-9999,Europe/Amsterdam,2011-04-19,"(4.23637, 51.63815)",2749990
2743664,Zuidpolder onder Ossendrecht,Zuidpolder onder Ossendrecht,,51.38817,4.30381,T,PLDR,NL,,06,,,,0,,-1,Europe/Amsterdam,2011-04-19,"(4.30381, 51.38817)",2749990
2743712,Zuidgeestsche Heide,Zuidgeestsche Heide,,51.46667,4.31667,V,HTH,NL,,06,,,,0,,15,Europe/Amsterdam,1994-01-08,"(4.31667, 51.46667)",2749990
2743713,Zuidgeest,Zuidgeest,,51.46583,4.30833,P,PPL,NL,,06,0748,,,0,,12,Europe/Amsterdam,2007-06-03,"(4.30833, 51.46583)",2743713
2743714,Zuidewijn,Zuidewijn,"Zijdwinde,Zuidewijn",51.7,5.01667,S,CSTL,NL,,06,0867,,,0,,0,Europe/Amsterdam,2012-01-17,"(5.01667, 51.7)",2743714
2743736,Zuiderplas,Zuiderplas,,51.67447,5.31807,H,LK,NL,,06,,,,0,,1,Europe/Amsterdam,2008-01-04,"(5.31807, 51.67447)",2749990
2743780,Zuider Afwateringkanaal,Zuider Afwateringkanaal,,51.68333,4.93333,H,CNL,NL,,06,,,,0,,1,Europe/Amsterdam,1994-01-08,"(4.93333, 51.68333)",2749990
2743796,Zuid Carolina,Zuid Carolina,,51.69333,5.73889,P,PPL,NL,,06,1982,,,0,,18,Europe/Amsterdam,2022-09-30,"(5.73889, 51.69333)",2743796
2743825,Zoomvliet,Zoomvliet,,51.49417,4.35833,P,PPL,NL,,06,1674,,,0,,10,Europe/Amsterdam,2007-06-03,"(4.35833, 51.49417)",2743612
2743826,Zoomland,Zoomland,,51.4878,4.32518,L,PRK,NL,,06,0748,,,0,,18,Europe/Amsterdam,2017-08-16,"(4.32518, 51.4878)",2743713
2743838,Zonnehoeve,Zonnehoeve,,51.38013,5.63906,S,FRM,NL,,06,1658,,,0,,23,Europe/Amsterdam,2011-06-04,"(5.63906, 51.38013)",2743838
2743843,Zondveld,Zondveld,Zandveld,51.57417,5.55694,P,PPL,NL,,06,1948,,,540,,12,Europe/Amsterdam,2017-08-16,"(5.55694, 51.57417)",2743489
2743844,Zonderwijk,Zonderwijk,,51.41141,5.39361,P,PPLX,NL,,06,0861,,,3435,,23,Europe/Amsterdam,2017-03-24,"(5.39361, 51.41141)",2743844
2743850,Zoggel,Zoggel,,51.73,5.49444,P,PPL,NL,,06,1721,,,0,,8,Europe/Amsterdam,2007-06-03,"(5.49444, 51.73)",2743850
2743864,Zittard,Zittard,,51.40667,5.36806,P,PPL,NL,,06,0861,,,0,,24,Europe/Amsterdam,2007-06-03,"(5.36806, 51.40667)",2743844
2743877,Zijtaart,Zijtaart,"Seitaart,Sijtaard,Sijtaart",51.5925,5.54167,P,PPL,NL,,06,1948,,,1055,,13,Europe/Amsterdam,2017-08-16,"(5.54167, 51.5925)",2743489
2743920,Zevenhutten,Zevenhutten,,51.71583,5.87639,P,PPL,NL,,06,1982,,,0,,12,Europe/Amsterdam,2022-09-30,"(5.87639, 51.71583)",2743796
2743931,Zevenhuizen,Zevenhuizen,,51.7,4.66667,P,PPL,NL,,06,1709,,,0,,-3,Europe/Amsterdam,2010-08-31,"(4.66667, 51.7)",2743480
2743932,Zevenhuizen,Zevenhuizen,,51.64833,4.41528,P,PPL,NL,,06,1709,,,0,,-1,Europe/Amsterdam,2007-06-03,"(4.41528, 51.64833)",2743480
2743933,Zevenhuizen,Zevenhuizen,,51.34333,5.56111,P,PPL,NL,,06,1658,,,0,,25,Europe/Amsterdam,2007-06-03,"(5.56111, 51.34333)",2743838
2743934,Zevenhuis,Zevenhuis,Zevenhuizen,51.7,5.65972,P,PPL,NL,,06,1991,,,0,,20,Europe/Amsterdam,2022-09-30,"(5.65972, 51.7)",2743934
2743944,Zevenbergschen Hoek,Zevenbergschen Hoek,Zevenbergschehoek,51.6725,4.67917,P,PPL,NL,,06,1709,,,1245,,0,Europe/Amsterdam,2017-10-17,"(4.67917, 51.6725)",2743480
2743946,Zevenbergen,Zevenbergen,,51.73,5.575,P,PPL,NL,,06,1721,,,0,,13,Europe/Amsterdam,2007-06-03,"(5.575, 51.73)",2743850
2743947,Zevenbergen,Zevenbergen,"Zevenbergen,ze fen bei heng,zefenberugen,Зевенберген,ゼーフェンベルゲン,澤芬貝亨",51.645,4.60417,P,PPL,NL,,06,1709,,,0,,5,Europe/Amsterdam,2017-10-17,"(4.60417, 51.645)",2743480
2743956,Zesgehuchten,Zesgehuchten,"Zes Gehuchten,Zesgehuchten",51.41667,5.55,P,PPL,NL,,06,1771,,,3460,,20,Europe/Amsterdam,2022-06-29,"(5.55, 51.41667)",2743956
2743960,Zelt,Zelt,,51.52583,5.17778,P,PPL,NL,,06,0824,,,0,,11,Europe/Amsterdam,2007-06-03,"(5.17778, 51.52583)",2743960
2743971,Zeldenrust,Zeldenrust,,51.68333,4.75,S,ML,NL,,06,1719,,,0,,1,Europe/Amsterdam,2011-06-04,"(4.75, 51.68333)",2743971
2743972,Zeldenrust,Zeldenrust,,51.27179,5.58171,S,ML,NL,,06,1706,,,0,,32,Europe/Amsterdam,2011-06-04,"(5.58171, 51.27179)",2743972
2743978,Zeilberg,Zeilberg,"Zeilberg,Zijlberg",51.45469,5.81878,P,PPLX,NL,,06,0762,,,1775,,29,Europe/Amsterdam,2017-03-24,"(5.81878, 51.45469)",2743978
2743992,Zegge,Zegge,,51.55667,4.51806,P,PPL,NL,,06,0840,,,1575,,6,Europe/Amsterdam,2017-10-17,"(4.51806, 51.55667)",2743563
2743993,Zegenwerp,Zegenwerp,,51.62883,5.34382,S,EST,NL,,06,0845,,,0,,15,Europe/Amsterdam,2011-06-04,"(5.34382, 51.62883)",2743993
2743994,Zegblokken,Zegblokken,,51.5598,4.36744,L,LCTY,NL,,06,0851,,,0,,-3,Europe/Amsterdam,2017-08-16,"(4.36744, 51.5598)",2743534
2744005,Zeelstse Heide,Zeelstse Heide,"Zeelstsche Heide,Zeelstse Heide",51.45,5.38333,V,HTH,NL,,06,,,,0,,20,Europe/Amsterdam,2012-01-17,"(5.38333, 51.45)",2749990
2744006,Zeelst,Zeelst,,51.42421,5.41566,P,PPLX,NL,,06,0861,,,5280,,21,Europe/Amsterdam,2017-03-24,"(5.41566, 51.42421)",2743844
2744008,Zeelberg,Zeelberg,Zeelburg,51.34,5.475,P,PPL,NL,,06,0858,,,0,,25,Europe/Amsterdam,2007-06-03,"(5.475, 51.34)",2744008
2744014,Zeeland,Zeeland,"Op-Zeeland,Seelandt,Selant,Zeeland,Zelant,Zelland,Zélland",51.6975,5.67639,P,PPL,NL,,06,1991,,,4750,,20,Europe/Amsterdam,2022-09-30,"(5.67639, 51.6975)",2743934
2744017,Zeehondenplaat,Zeehondenplaat,,51.63507,4.24828,H,FLTT,NL,,06,,,,0,,-9999,Europe/Amsterdam,2011-01-10,"(4.24828, 51.63507)",2749990
2744033,Zandwijk,Zandwijk,,51.7775,4.975,P,PPL,NL,,06,1959,,,0,,1,Europe/Amsterdam,2019-01-20,"(4.975, 51.7775)",2744033
2744052,Zandspui,Zandspui,,51.55125,4.67743,P,PPL,NL,,06,0777,,,0,,8,Europe/Amsterdam,2011-06-04,"(4.67743, 51.55125)",2743542
2744055,Zandschel,Zandschel,,51.66441,4.98299,P,PPL,NL,,06,0867,,,0,,1,Europe/Amsterdam,2009-10-09,"(4.98299, 51.66441)",2743714
2744060,Zandoerle,Zandoerle,"Zandoerle,zan duo er,贊多爾,赞多尔",51.41583,5.35833,P,PPL,NL,,06,0861,,,105,,23,Europe/Amsterdam,2017-03-24,"(5.35833, 51.41583)",2743844
2744068,Zandkant,Zandkant,,51.6649,5.47883,P,PPL,NL,,06,1721,,,0,,9,Europe/Amsterdam,2011-04-19,"(5.47883, 51.6649)",2743850
2744069,Zandkant,Zandkant,,51.6325,5.90278,P,PPL,NL,,06,1982,,,0,,14,Europe/Amsterdam,2022-09-30,"(5.90278, 51.6325)",2743796
2744073,Zandhoek,Zandhoek,De Zandhoek,51.5975,5.6625,P,PPL,NL,,06,0755,,,0,,15,Europe/Amsterdam,2007-06-03,"(5.6625, 51.5975)",2744073
2744075,Zandhoef,Zandhoef,,51.31482,5.29509,L,PRK,NL,,06,1724,,,0,,32,Europe/Amsterdam,2017-08-16,"(5.29509, 51.31482)",2743549
2744078,Zandfort,Zandfort,,51.43314,4.31934,P,PPL,NL,,06,0873,,,0,,16,Europe/Amsterdam,2011-02-11,"(4.31934, 51.43314)",2743530
2744083,Zandeind,Zandeind,,51.5325,5.0125,P,PPL,NL,,06,0785,,,0,,15,Europe/Amsterdam,2007-06-03,"(5.0125, 51.5325)",2744083
2744087,Zandbos,Zandbos,"Zandbos,Zandbosch",51.4693,5.75364,V,FRST,NL,,06,,,,0,,27,Europe/Amsterdam,2012-01-17,"(5.75364, 51.4693)",2749990
2744088,Zandbergsven,Zandbergsven,,51.57318,5.27091,H,MRSH,NL,,06,,,,0,,8,Europe/Amsterdam,2011-01-10,"(5.27091, 51.57318)",2749990
2744089,Zandbergsche Reevliet,Zandbergsche Reevliet,,51.66667,4.55,H,CNL,NL,,06,,,,0,,4,Europe/Amsterdam,1994-01-08,"(4.55, 51.66667)",2749990
2744090,Polder Zandberg,Polder Zandberg,,51.66667,4.56667,T,PLDR,NL,,06,,,,0,,4,Europe/Amsterdam,1994-01-08,"(4.56667, 51.66667)",2749990
2744093,Zandberg,Zandberg,,51.57333,4.78472,P,PPLX,NL,,06,0758,,,5300,,5,Europe/Amsterdam,2017-03-24,"(4.78472, 51.57333)",2744093
2744099,Zandberg,Zandberg,Zandberg,51.48344,4.93497,T,HLL,NL,,06,1723,,,0,,30,Europe/Amsterdam,2018-12-04,"(4.93497, 51.48344)",2744099
2744100,Zand,Zand,,51.51,5.74722,P,PPL,NL,,06,1652,,,0,,24,Europe/Amsterdam,2007-06-03,"(5.74722, 51.51)",2744100
2744111,Zaarvlaas,Zaarvlaas,,51.5175,5.73611,P,PPL,NL,,06,1652,,,0,,23,Europe/Amsterdam,2007-06-03,"(5.73611, 51.5175)",2744100
2744123,Zaalheuvel,Zaalheuvel,,51.75,5.71667,P,PPLL,NL,,06,1982,,,0,,9,Europe/Amsterdam,2022-09-30,"(5.71667, 51.75)",2743796
2744136,Wulpenoord,Wulpenoord,,51.3967,5.07897,L,LCTY,NL,,06,1667,,,0,,36,Europe/Amsterdam,2017-08-16,"(5.07897, 51.3967)",2744136
2744140,Wouwse Plantage,Wouwse Plantage,Wouwse-Plantage,51.48417,4.3875,P,PPL,NL,,06,1674,,,590,,10,Europe/Amsterdam,2017-10-17,"(4.3875, 51.48417)",2743612
2744141,Wouwsche Plantage,Wouwsche Plantage,Wouwse Plantage,51.46909,4.36037,V,FRST,NL,,06,,,,0,,24,Europe/Amsterdam,2009-10-09,"(4.36037, 51.46909)",2749990
2744142,Wouwse Hil,Wouwsche Hil,"Wouwsche-Hill,Wouwse Hil",51.4975,4.39861,P,PPL,NL,,06,1674,,,0,,7,Europe/Amsterdam,2007-06-03,"(4.39861, 51.4975)",2743612
2744143,Wouwsche Heide,Wouwsche Heide,,51.47772,4.40777,L,LCTY,NL,,06,1674,,,0,,12,Europe/Amsterdam,2017-08-16,"(4.40777, 51.47772)",2743612
2744145,Wouw,Wouw,,51.52167,4.39028,P,PPL,NL,,06,1674,,,4600,,6,Europe/Amsterdam,2017-10-17,"(4.39028, 51.52167)",2743612
2744155,Gemeente Woudrichem,Gemeente Woudrichem,"Gemeente Woudrichem,Woudrichem",51.78651,5.0026,A,ADM2H,NL,,06,0874,,,14634,,-1,Europe/Amsterdam,2019-01-19,"(5.0026, 51.78651)",2744155
2744156,Woudrichem,Woudrichem,"Vaudrixem,Woerkum,Woudrichem,fawdrykhym,wo de li he mu,Վաուդրիխեմ,فاودريخيم,沃德里赫姆",51.815,5.00139,P,PPL,NL,,06,1959,,,4674,,2,Europe/Amsterdam,2022-04-19,"(5.00139, 51.815)",2744033
2744165,Woud,Woud,,51.65417,5.37778,P,PPL,NL,,06,0845,,,0,,6,Europe/Amsterdam,2007-06-03,"(5.37778, 51.65417)",2743993
2744203,Wolfswinkel,Wolfswinkel,,51.525,5.49306,P,PPL,NL,,06,0848,,,0,,14,Europe/Amsterdam,2007-06-03,"(5.49306, 51.525)",2744203
2744206,Wolfslaar,Wolfslaar,,51.56209,4.80617,L,PRK,NL,,06,0758,,,0,,5,Europe/Amsterdam,2017-08-16,"(4.80617, 51.56209)",2744093
2744208,Wolfshoek,Wolfshoek,,51.4,5.35556,P,PPL,NL,,06,0770,,,0,,26,Europe/Amsterdam,2007-06-03,"(5.35556, 51.4)",2744208
2744209,Wolfsbosch,Wolfsbosch,,51.56333,5.71389,P,PPL,NL,,06,1652,,,0,,20,Europe/Amsterdam,2007-06-03,"(5.71389, 51.56333)",2744100
2744211,Wolfsberg,Wolfsberg,,51.38333,5.8,P,PPL,NL,,06,0743,,,0,,25,Europe/Amsterdam,2011-06-04,"(5.8, 51.38333)",2744211
2744216,Wolfhoeksche Heide,Wolfhoeksche Heide,,51.38929,5.35389,V,HTH,NL,,06,,,,0,,34,Europe/Amsterdam,2011-04-19,"(5.35389, 51.38929)",2749990
2744244,Woeste Gedeelte,Woeste Gedeelte,,51.46518,4.35793,L,LCTY,NL,,06,0748,,,0,,29,Europe/Amsterdam,2017-08-16,"(4.35793, 51.46518)",2743713
2744250,Woenselse Heide,Woenselse Heide,,51.48333,5.46667,P,PPLX,NL,,06,0772,,,5205,,17,Europe/Amsterdam,2017-03-24,"(5.46667, 51.48333)",2744250
2744251,Woensel,Woensel,,51.47561,5.47548,P,PPLX,NL,,06,0772,,,0,,19,Europe/Amsterdam,2009-01-05,"(5.47548, 51.47561)",2744250
2744252,Woensdrechtsche Heide,Woensdrechtsche Heide,,51.45411,4.33926,V,HTH,NL,,06,,,,0,,16,Europe/Amsterdam,2009-10-09,"(4.33926, 51.45411)",2749990
2744253,Zuidpolder van Woensdrecht,Zuidpolder van Woensdrecht,,51.42175,4.29257,T,PLDR,NL,,06,,,,0,,-1,Europe/Amsterdam,2011-04-19,"(4.29257, 51.42175)",2749990
2744256,Gemeente Woensdrecht,Gemeente Woensdrecht,"Gemeente Woensdrecht,Woensdrecht",51.40948,4.33512,A,ADM2,NL,,06,0873,,,22028,,25,Europe/Amsterdam,2023-01-30,"(4.33512, 51.40948)",2743530
2744257,Woensdrecht,Woensdrecht,"Vonsdrekht,Woensdrecht,Вонсдрехт",51.42897,4.30355,P,PPL,NL,,06,0873,,,1340,,7,Europe/Amsterdam,2017-10-17,"(4.30355, 51.42897)",2743530
2744258,Witven,Witven,,51.38333,5.63333,L,RESN,NL,,06,,,,0,,23,Europe/Amsterdam,1994-01-08,"(5.63333, 51.38333)",2749990
2744285,Witte Moeren,Witte Moeren,,51.48865,4.57402,L,LCTY,NL,,06,0840,,,0,,11,Europe/Amsterdam,2017-08-16,"(4.57402, 51.48865)",2743563
2744293,Witte Brug,Witte Brug,,51.65,5.93333,S,BDG,NL,,06,1982,,,0,,15,Europe/Amsterdam,2022-09-30,"(5.93333, 51.65)",2743796
2744297,Witte Bergen,Witte Bergen,Witte Bergen,51.42525,4.86978,T,HLL,NL,,06,0744,,,0,,25,Europe/Amsterdam,2018-12-04,"(4.86978, 51.42525)",2744297
2744300,Witrijt,Witrijt,,51.3,5.25,L,PRK,NL,,06,1724,,,0,,43,Europe/Amsterdam,2017-08-16,"(5.25, 51.3)",2743549
2744301,Witrijt,Witrijt,Wilreit,51.3125,5.26389,P,PPL,NL,,06,1724,,,0,,36,Europe/Amsterdam,2007-06-03,"(5.26389, 51.3125)",2743549
2744306,Wit Holland,Wit Holland,"Wit Holland,Withollandsveen",51.44873,5.24625,H,LKS,NL,,06,,,,0,,18,Europe/Amsterdam,2012-01-17,"(5.24625, 51.44873)",2749990
2744333,Wintelre,Wintelre,,51.44417,5.34028,P,PPL,NL,,06,0770,,,2125,,22,Europe/Amsterdam,2024-08-16,"(5.34028, 51.44417)",2744208
2744347,Winkelstraat,Winkelstraat,,51.43667,5.65417,P,PPL,NL,,06,0847,,,0,,21,Europe/Amsterdam,2007-06-03,"(5.65417, 51.43667)",2744347
2744349,Winkelsche Hoek,Winkelsche Hoek,,51.61667,5.16667,P,PPL,NL,,06,0855,,,0,,7,Europe/Amsterdam,2011-06-04,"(5.16667, 51.61667)",2744349
2744350,Winkelhoeken,Winkelhoeken,,51.49695,5.04378,L,LCTY,NL,,06,0785,,,0,,16,Europe/Amsterdam,2017-08-16,"(5.04378, 51.49695)",2744083
2744355,Winkel,Winkel,,51.61333,5.16944,P,PPL,NL,,06,0855,,,0,,9,Europe/Amsterdam,2021-07-06,"(5.16944, 51.61333)",2744349
2744356,Winkel,Winkel,,51.29667,5.58056,P,PPL,NL,,06,1706,,,0,,29,Europe/Amsterdam,2007-06-03,"(5.58056, 51.29667)",2743972
2744388,Willemstad,Willemstad,,51.69167,4.43889,P,PPL,NL,,06,1709,,,800,,1,Europe/Amsterdam,2017-10-17,"(4.43889, 51.69167)",2743480
2744390,Willemspolder,Willemspolder,,51.63677,4.39098,T,PLDR,NL,,06,,,,0,,-2,Europe/Amsterdam,2011-04-19,"(4.39098, 51.63677)",2749990
2744408,Willibrordushoek,Willibrordushoek,Willibrordushoek,51.595,5.50694,P,PPL,NL,,06,1948,,,0,,11,Europe/Amsterdam,2017-08-16,"(5.50694, 51.595)",2743489
2744419,Wilhelminakanaal,Wilhelminakanaal,,51.65128,4.84632,H,CNL,NL,,06,,,,0,,4,Europe/Amsterdam,2011-04-19,"(4.84632, 51.65128)",2749990
2744424,Wilhelminadorp,Wilhelminadorp,,51.49742,5.39223,P,PPLX,NL,,06,0753,,,3645,,17,Europe/Amsterdam,2017-03-24,"(5.39223, 51.49742)",2744424
2744432,Wildert,Wildert,,51.46083,4.66944,P,PPL,NL,,06,0879,,,0,,10,Europe/Amsterdam,2007-06-03,"(4.66944, 51.46083)",2743515
2744433,Wildert,Wildert,,51.52856,4.64285,L,LCTY,NL,,06,0777,,,0,,8,Europe/Amsterdam,2017-08-16,"(4.64285, 51.52856)",2743542
2744434,Wildert,Wildert,,51.51394,4.88624,L,LCTY,NL,,06,1723,,,0,,13,Europe/Amsterdam,2017-08-16,"(4.88624, 51.51394)",2744099
2744435,Wildernissen,Wildernissen,,51.35855,4.35729,L,PRK,NL,,06,0873,,,0,,11,Europe/Amsterdam,2017-08-16,"(4.35729, 51.35855)",2743530
2744438,Wildenhoek,Wildenhoek,,51.56301,4.42843,L,LCTY,NL,,06,0851,,,0,,-2,Europe/Amsterdam,2017-08-16,"(4.42843, 51.56301)",2743534
2744446,Wilbertoord,Wilbertoord,Peeldorp,51.65583,5.775,P,PPL,NL,,06,1982,,,785,,20,Europe/Amsterdam,2022-09-30,"(5.775, 51.65583)",2743796
2744487,Wijk,Wijk,,51.76667,5.11667,P,PPL,NL,,06,1959,,,0,,2,Europe/Amsterdam,2019-01-20,"(5.11667, 51.76667)",2744033
2744515,Wijboschbroek,Wijboschbroek,,51.62462,5.48708,L,PRK,NL,,06,1948,,,0,,17,Europe/Amsterdam,2017-08-16,"(5.48708, 51.62462)",2743489
2744516,Wijbosch,Wijbosch,"'t Wijbosch,Weibosch",51.61667,5.46806,P,PPL,NL,,06,1948,,,1365,,11,Europe/Amsterdam,2017-08-16,"(5.46806, 51.61667)",2743489
2744557,Wielsche Hoeven,Wielse Hoeven,"De Wielschehoeven,Wielsche Hoeven",51.62833,5.35694,P,PPL,NL,,06,0845,,,0,,7,Europe/Amsterdam,2007-06-03,"(5.35694, 51.62833)",2743993
2744598,Westzandberg,Westzandberg,,51.56368,4.41544,L,LCTY,NL,,06,0851,,,0,,0,Europe/Amsterdam,2017-08-16,"(4.41544, 51.56368)",2743534
2744606,Westveerpolder,Westveerpolder,,51.60537,4.34168,T,PLDR,NL,,06,,,,0,,0,Europe/Amsterdam,2011-04-19,"(4.34168, 51.60537)",2749990
2744612,Westrik,Westrik,,51.59333,4.71944,P,PPL,NL,,06,0758,,,0,,5,Europe/Amsterdam,2007-06-03,"(4.71944, 51.59333)",2744093
2744618,Westpolder,Westpolder,,51.65145,4.52716,T,PLDR,NL,,06,,,,0,,-1,Europe/Amsterdam,2011-04-19,"(4.52716, 51.65145)",2749990
2744634,Westlaar,Westlaar,,51.49141,4.38328,L,LCTY,NL,,06,1674,,,0,,8,Europe/Amsterdam,2017-08-16,"(4.38328, 51.49141)",2743612
2744651,West-Graaf Hendrikpolder,West-Graaf Hendrikpolder,,51.59581,4.2896,T,PLDR,NL,,06,,,,0,,-3,Europe/Amsterdam,2011-04-19,"(4.2896, 51.59581)",2749990
2744672,Westerwijk,Westerwijk,,51.51083,5.13194,P,PPL,NL,,06,0798,,,0,,14,Europe/Amsterdam,2007-06-03,"(5.13194, 51.51083)",2744672
2744673,Westerwijk,Westerwijk,,51.47,5.16495,P,PPLL,NL,,06,0798,,,0,,15,Europe/Amsterdam,2009-01-13,"(5.16495, 51.47)",2744672
2744729,Westerhovense Bos,Westerhovense Bos,"Westerhovensche Heide,Westerhovense Bos",51.31667,5.43333,L,PRK,NL,,06,0858,,,0,,33,Europe/Amsterdam,2017-08-16,"(5.43333, 51.31667)",2744008
2744731,Westerhoven,Westerhoven,,51.3325,5.39583,P,PPL,NL,,06,1724,,,1635,,27,Europe/Amsterdam,2017-10-17,"(5.39583, 51.3325)",2743549
2744771,Westerbeek,Westerbeek,,51.5825,5.8625,P,PPL,NL,,06,1982,,,335,,24,Europe/Amsterdam,2022-09-30,"(5.8625, 51.5825)",2743796
2744782,Westelbeers,Westelbeers,,51.445,5.21111,P,PPL,NL,,06,0823,,,0,,24,Europe/Amsterdam,2007-06-03,"(5.21111, 51.445)",2744782
2744822,Werveld,Werveld,,51.68833,5.92778,P,PPL,NL,,06,1982,,,0,,13,Europe/Amsterdam,2022-09-30,"(5.92778, 51.68833)",2743796
2744823,Wernhoutsbrug,Wernhoutsbrug,,51.42833,4.625,P,PPL,NL,,06,0879,,,0,,15,Europe/Amsterdam,2007-06-03,"(4.625, 51.42833)",2743515
2744824,Wernhout,Wernhout,,51.455,4.64167,P,PPL,NL,,06,0879,,,1030,,12,Europe/Amsterdam,2017-10-17,"(4.64167, 51.455)",2743515
2744826,Gemeente Werkendam,Gemeente Werkendam,"Gemeente Werkendam,Werkendam",51.77072,4.85082,A,ADM2H,NL,,06,0870,,,26979,,-1,Europe/Amsterdam,2019-01-19,"(4.85082, 51.77072)",2744826
2744827,Werkendam,Werkendam,"Verkendam,Werkendam,Веркендам",51.81,4.89444,P,PPL,NL,,06,1959,,,11204,,2,Europe/Amsterdam,2021-08-30,"(4.89444, 51.81)",2744033
2744849,Welschap,Welschap,,51.44898,5.41883,P,PPL,NL,,06,0772,,,0,,23,Europe/Amsterdam,2008-07-31,"(5.41883, 51.44898)",2744250
2744861,Wellenseindse Heide,Wellenseindse Heide,"Wellenseindsche Heide,Wellenseindse Heide",51.40317,5.11488,V,HTH,NL,,06,,,,0,,28,Europe/Amsterdam,2012-01-17,"(5.11488, 51.40317)",2749990
2744862,Wellenseind,Wellenseind,,51.42168,5.14812,P,PPL,NL,,06,1667,,,0,,31,Europe/Amsterdam,2011-06-04,"(5.14812, 51.42168)",2744136
2744869,Welberg,Welberg,,51.57667,4.33056,P,PPL,NL,,06,0851,,,1410,,3,Europe/Amsterdam,2017-03-24,"(4.33056, 51.57667)",2743534
2744874,Weiven,Weiven,,51.56667,5.51667,P,PPL,NL,,06,1948,,,0,,11,Europe/Amsterdam,2017-08-16,"(5.51667, 51.56667)",2743489
2744880,Weimersche Heide,Weimersche Heide,,51.44415,4.61343,L,LCTY,NL,,06,0879,,,0,,10,Europe/Amsterdam,2017-08-16,"(4.61343, 51.44415)",2743515
2744881,Weimeren,Weimeren,,51.45,4.62778,P,PPL,NL,,06,0879,,,0,,11,Europe/Amsterdam,2007-06-03,"(4.62778, 51.45)",2743515
2744882,Weilenseind,Weilenseind,,51.53417,4.94444,P,PPL,NL,,06,0784,,,0,,17,Europe/Amsterdam,2007-06-03,"(4.94444, 51.53417)",2744882
2744889,Weijereind,Weijereind,,51.35451,5.17366,P,PPL,NL,,06,1667,,,0,,31,Europe/Amsterdam,2009-10-09,"(5.17366, 51.35451)",2744136
2744935,Weelkreek,Weelkreek,,51.63203,4.38166,H,CNL,NL,,06,,,,0,,-4,Europe/Amsterdam,2011-01-10,"(4.38166, 51.63203)",2749990
2744937,Weeg,Weeg,,51.63833,5.63194,P,PPL,NL,,06,1991,,,0,,14,Europe/Amsterdam,2022-09-30,"(5.63194, 51.63833)",2743934
2744938,Weebosch,Weebosch,'t Wijbosch,51.30833,5.29444,P,PPL,NL,,06,1724,,,535,,36,Europe/Amsterdam,2017-03-24,"(5.29444, 51.30833)",2743549
2744954,Waterstraat,Waterstraat,,51.47667,5.1625,P,PPL,NL,,06,0798,,,0,,15,Europe/Amsterdam,2007-06-03,"(5.1625, 51.47667)",2744672
2744969,Waterkant,Waterkant,,51.5475,4.26528,P,PPL,NL,,06,0748,,,0,,5,Europe/Amsterdam,2007-06-03,"(4.26528, 51.5475)",2743713
2744983,Wasven,Wasven,,51.4,5.61667,V,HTH,NL,,06,,,,0,,21,Europe/Amsterdam,1994-01-08,"(5.61667, 51.4)",2749990
2744987,Wassene Ven,Wassene Ven,,51.4,4.33333,H,PND,NL,,06,,,,0,,12,Europe/Amsterdam,1994-01-08,"(4.33333, 51.4)",2749990
2744992,Waspik-Boven,Waspik-Boven,,51.68312,4.95059,P,PPL,NL,,06,0867,,,0,,2,Europe/Amsterdam,2009-01-09,"(4.95059, 51.68312)",2743714
2744994,Waspik,Waspik,,51.68667,4.94444,P,PPL,NL,,06,0867,,,5120,,2,Europe/Amsterdam,2017-10-17,"(4.94444, 51.68667)",2743714
2745027,Warande,Warande,,51.62672,4.8414,P,PPLX,NL,,06,0826,,,0,,6,Europe/Amsterdam,2011-06-04,"(4.8414, 51.62672)",2745027
2745044,Wanroijse Peel,Wanroijse Peel,"Wanroijsche Peel,Wanroijse Peel,Wanrooise Peel",51.62597,5.78789,L,LCTY,NL,,06,1982,,,0,,20,Europe/Amsterdam,2022-09-30,"(5.78789, 51.62597)",2743796
2745046,Wanroij,Wanroij,"Wanrooi,Wanrooy,Wanroy",51.6575,5.81806,P,PPL,NL,,06,1982,,,2340,,15,Europe/Amsterdam,2022-09-30,"(5.81806, 51.6575)",2743796
2745050,Wandelbos,Wandelbos,"Het Wandelbosch,Wandelbos",51.56876,5.03715,V,FRST,NL,,06,,,,0,,22,Europe/Amsterdam,2012-01-17,"(5.03715, 51.56876)",2749990
2745055,Wambergsche Beek,Wambergsche Beek,,51.69448,5.37205,H,STM,NL,,06,,,,0,,12,Europe/Amsterdam,2011-04-19,"(5.37205, 51.69448)",2749990
2745056,Wamberg,Wamberg,,51.69629,5.37489,S,EST,NL,,06,0845,,,0,,10,Europe/Amsterdam,2011-06-04,"(5.37489, 51.69629)",2743993
2745061,Walsert,Walsert,,51.65333,5.85417,P,PPL,NL,,06,1982,,,0,,12,Europe/Amsterdam,2022-09-30,"(5.85417, 51.65333)",2743796
2745062,Walse Duin,Walse Duin,,51.44379,4.35883,L,PRK,NL,,06,0873,,,0,,26,Europe/Amsterdam,2017-08-16,"(4.35883, 51.44379)",2743530
2745063,Walsberg,Walsberg,,51.47446,5.80224,P,PPLX,NL,,06,0762,,,980,,27,Europe/Amsterdam,2017-03-24,"(5.80224, 51.47446)",2743978
2745068,Walik,Walik,,51.3575,5.36667,P,PPL,NL,,06,1724,,,0,,28,Europe/Amsterdam,2007-06-03,"(5.36667, 51.3575)",2743549
2745091,Wagenberg,Wagenberg,,51.665,4.74861,P,PPL,NL,,06,1719,,,1905,,4,Europe/Amsterdam,2017-10-17,"(4.74861, 51.665)",2743971
2745110,Waardhuizensebrug,Waardhuizensebrug,,51.77832,4.98796,S,BDG,NL,,06,1959,,,0,,0,Europe/Amsterdam,2019-01-20,"(4.98796, 51.77832)",2744033
2745111,Waardhuizen,Waardhuizen,,51.77667,5.00417,P,PPL,NL,,06,1959,,,283,,-1,Europe/Amsterdam,2021-08-30,"(5.00417, 51.77667)",2744033
2745122,Gemeente Waalwijk,Gemeente Waalwijk,"Gemeente Waalwijk,Waalwijk",51.6897,5.01721,A,ADM2,NL,,06,0867,,,48815,,1,Europe/Amsterdam,2023-01-30,"(5.01721, 51.6897)",2743714
2745123,Waalwijk,Waalwijk,Waalwijk,51.6825,5.07083,P,PPL,NL,,06,0867,,,45610,,4,Europe/Amsterdam,2017-10-17,"(5.07083, 51.6825)",2743714
2745126,Gemeente Waalre,Gemeente Waalre,"Gemeente Waalre,Waalre",51.38757,5.4638,A,ADM2,NL,,06,0866,,,17544,,29,Europe/Amsterdam,2023-01-30,"(5.4638, 51.38757)",2745126
2745127,Waalre,Waalre,Waalre,51.38667,5.44444,P,PPL,NL,,06,0866,,,6445,,24,Europe/Amsterdam,2017-10-17,"(5.44444, 51.38667)",2745126
2745135,Waaijenberg,Waaijenberg,"Waaienberg,Waaijenberg",51.47139,4.70181,L,LCTY,NL,,06,0879,,,0,,13,Europe/Amsterdam,2017-08-16,"(4.70181, 51.47139)",2743515
2745151,Vughtsche Hoeven,Vughtsche Hoeven,"Vuchtse Hoeven,Vughtsche Hoeven",51.64016,5.27698,P,PPL,NL,,06,0865,,,0,,6,Europe/Amsterdam,2012-01-17,"(5.27698, 51.64016)",2743490
2745152,Vughtsche Heide,Vughtsche Heide,"Vuchtse Heide,Vughtseheide",51.6606,5.27159,V,HTH,NL,,06,,,,0,,9,Europe/Amsterdam,2008-01-04,"(5.27159, 51.6606)",2749990
2745153,Gemeente Vught,Gemeente Vught,"Gemeente Vught,Vught",51.65822,5.26746,A,ADM2,NL,,06,0865,,,26418,,12,Europe/Amsterdam,2019-01-19,"(5.26746, 51.65822)",2743490
2745154,Vught,Vught,"Vjugt,Vught,Vuxt,fwkht,Вюгт,Վուխտ,فوخت",51.65333,5.2875,P,PPL,NL,,06,0865,,,25043,,8,Europe/Amsterdam,2024-07-02,"(5.2875, 51.65333)",2743490
2745155,Vuchtschoot,Vuchtschoot,,51.56083,4.70556,P,PPL,NL,,06,0758,,,0,,4,Europe/Amsterdam,2007-06-03,"(4.70556, 51.56083)",2744093
2745170,Vrolijke Jager,Vrolijke Jager,"Vrolijke Jager,Vroolijke Jager",51.34535,5.65,L,PRK,NL,,06,1706,,,0,,34,Europe/Amsterdam,2017-08-16,"(5.65, 51.34535)",2743972
2745171,Vroenhout,Vroenhout,,51.5425,4.41944,P,PPL,NL,,06,1674,,,340,,4,Europe/Amsterdam,2017-03-24,"(4.41944, 51.5425)",2743612
2745174,Vrilkhoven,Vrilkhoven,,51.56667,5.35139,P,PPL,NL,,06,0757,,,105,,10,Europe/Amsterdam,2017-03-24,"(5.35139, 51.56667)",2745174
2745176,Vrijhoeve-Capelle,Vrijhoeve-Capelle,"Vrijhoeve Kapelle,Vrijhoeven Kapelle",51.67266,5.0144,P,PPL,NL,,06,0867,,,0,,2,Europe/Amsterdam,2009-01-13,"(5.0144, 51.67266)",2743714
2745191,Vresselsebos,Vresselsebos,"Vresselsche Bosch,Vresselsebos",51.54714,5.51431,V,FRST,NL,,06,,,,0,,21,Europe/Amsterdam,2012-01-17,"(5.51431, 51.54714)",2749990
2745192,Vressel,Vressel,,51.53331,5.50951,P,PPL,NL,,06,1948,,,0,,14,Europe/Amsterdam,2017-08-16,"(5.50951, 51.53331)",2743489
2745194,Vreewijk,Vreewijk,"Vreekwijk,Vrekwijk",51.44333,5.79861,P,PPL,NL,,06,0762,,,0,,25,Europe/Amsterdam,2007-06-03,"(5.79861, 51.44333)",2743978
2745202,Vrederust,Vrederust,,51.51667,4.31667,V,HTH,NL,,06,,,,0,,7,Europe/Amsterdam,1994-01-08,"(4.31667, 51.51667)",2749990
2745214,Vrachelse Heide,Vrachelse Heide,"Vrachelsche Heide,Vrachelse Heide",51.63659,4.82388,V,HTH,NL,,06,,,,0,,10,Europe/Amsterdam,2012-01-17,"(4.82388, 51.63659)",2749990
2745215,Vrachelen,Vrachelen,Vraggelen,51.65333,4.82639,P,PPL,NL,,06,0826,,,0,,5,Europe/Amsterdam,2007-06-03,"(4.82639, 51.65333)",2745027
2745217,Vossereijten,Vossereijten,,51.51452,5.07363,L,LCTY,NL,,06,0785,,,0,,13,Europe/Amsterdam,2017-08-16,"(5.07363, 51.51452)",2744083
2745221,Vossenhol,Vossenhol,,51.5,5.5,P,PPL,NL,,06,0848,,,0,,14,Europe/Amsterdam,2011-06-04,"(5.5, 51.5)",2744203
2745224,Vossendaal,Vossendaal,,51.56667,4.61667,P,PPL,NL,,06,0777,,,0,,10,Europe/Amsterdam,2011-06-04,"(4.61667, 51.56667)",2743542
2745228,Vossenberg,Vossenberg,,51.63472,5.43201,P,PPL,NL,,06,1948,,,0,,9,Europe/Amsterdam,2017-08-16,"(5.43201, 51.63472)",2743489
2745229,Vossenberg,Vossenberg,,51.56667,5.78472,P,PPL,NL,,06,1652,,,0,,27,Europe/Amsterdam,2007-06-03,"(5.78472, 51.56667)",2744100
2745230,Vossenberg,Vossenberg,,51.54583,4.96389,P,PPL,NL,,06,0784,,,0,,15,Europe/Amsterdam,2007-06-03,"(4.96389, 51.54583)",2744882
2745234,Vosselen,Vosselen,,51.41417,5.72639,P,PPL,NL,,06,0743,,,0,,24,Europe/Amsterdam,2007-06-03,"(5.72639, 51.41417)",2744211
2745241,Voske,Voske,,51.44917,4.97639,P,PPL,NL,,06,0744,,,0,,25,Europe/Amsterdam,2007-06-03,"(4.97639, 51.44917)",2744297
2745243,Vosdonk,Vosdonk,,51.55,4.61667,P,PPL,NL,,06,0777,,,0,,7,Europe/Amsterdam,2008-02-01,"(4.61667, 51.55)",2743542
2745248,Vosberg,Vosberg,,51.57834,4.39245,L,LCTY,NL,,06,0851,,,0,,-2,Europe/Amsterdam,2017-08-16,"(4.39245, 51.57834)",2743534
2745250,Vortum-Mullem,Vortum-Mullem,"Mullem,Mullum,Vorthum,Vortum,Vortum-Mullem",51.62083,5.97778,P,PPL,NL,,06,1982,,,0,,14,Europe/Amsterdam,2022-09-30,"(5.97778, 51.62083)",2743796
2745251,Vorstervoortse Hoeve,Vorstervoortse Hoeve,,51.37606,5.50678,S,FRM,NL,,06,0866,,,0,,21,Europe/Amsterdam,2011-06-04,"(5.50678, 51.37606)",2745126
2745252,Vorstenbosch,Vorstenbosch,,51.6525,5.55,P,PPL,NL,,06,1721,,,1630,,11,Europe/Amsterdam,2017-10-17,"(5.55, 51.6525)",2743850
2745255,Vorenseinde,Vorenseinde,Vorenseind,51.5284,4.59057,P,PPLL,NL,,06,0840,,,0,,12,Europe/Amsterdam,2008-12-22,"(4.59057, 51.5284)",2743563
2745269,Voortje,Voortje,,51.42583,5.63472,P,PPL,NL,,06,1771,,,0,,20,Europe/Amsterdam,2007-06-03,"(5.63472, 51.42583)",2743956
2745272,Voorteind,Voorteind,,51.475,5.24306,P,PPL,NL,,06,0823,,,0,,17,Europe/Amsterdam,2007-06-03,"(5.24306, 51.475)",2744782
2745274,Voort,Voort,,51.47917,5.78472,P,PPL,NL,,06,0762,,,0,,24,Europe/Amsterdam,2007-06-03,"(5.78472, 51.47917)",2743978
2745276,Voort,Voort,,51.34833,5.3875,P,PPL,NL,,06,1724,,,0,,27,Europe/Amsterdam,2007-06-03,"(5.3875, 51.34833)",2743549
2745281,Voorste Stroom,Voorste Stroom,,51.58304,5.21979,H,STM,NL,,06,,,,0,,7,Europe/Amsterdam,2011-01-10,"(5.21979, 51.58304)",2749990
2745287,Voorste Heikant,Voorste Heikant,,51.34583,5.15417,P,PPL,NL,,06,1667,,,0,,33,Europe/Amsterdam,2007-06-03,"(5.15417, 51.34583)",2744136
2745288,Voorste Heide,Voorste Heide,,51.75287,5.57064,V,HTH,NL,,06,,,,0,,18,Europe/Amsterdam,2011-04-19,"(5.57064, 51.75287)",2749990
2745290,Voorste Diesdonk,Voorste Diesdonk,,51.42417,5.71667,P,PPL,NL,,06,0743,,,0,,23,Europe/Amsterdam,2007-06-03,"(5.71667, 51.42417)",2744211
2745292,Voorste Brug,Voorste Brug,,51.28417,5.42639,P,PPL,NL,,06,0858,,,0,,31,Europe/Amsterdam,2007-06-03,"(5.42639, 51.28417)",2744008
2745293,Voorste Beersdonk,Voorste Beersdonk,,51.44167,5.72639,P,PPL,NL,,06,0762,,,0,,23,Europe/Amsterdam,2007-06-03,"(5.72639, 51.44167)",2743978
2745303,Voorpeel,Voorpeel,,51.45,5.83333,P,PPL,NL,,06,0762,,,0,,29,Europe/Amsterdam,2011-06-04,"(5.83333, 51.45)",2743978
2745314,Vooreind,Vooreind,,51.39083,5.16528,P,PPL,NL,,06,1667,,,0,,26,Europe/Amsterdam,2007-06-03,"(5.16528, 51.39083)",2744136
2745316,Voordijk,Voordijk,,51.7075,5.22639,P,PPL,NL,,06,0797,,,0,,4,Europe/Amsterdam,2007-06-03,"(5.22639, 51.7075)",2745316
2745317,Voordeldonk,Voordeldonk,,51.4025,5.775,P,PPL,NL,,06,0743,,,0,,26,Europe/Amsterdam,2007-06-03,"(5.775, 51.4025)",2744211
2745337,Volkelstraat,Volkelstraat,,51.63333,5.65,P,PPL,NL,,06,1991,,,0,,14,Europe/Amsterdam,2022-09-30,"(5.65, 51.63333)",2743934
2745338,Volkel,Volkel,,51.6425,5.65417,P,PPL,NL,,06,1991,,,3560,,19,Europe/Amsterdam,2022-09-30,"(5.65417, 51.6425)",2743934
2745343,Voldijn,Voldijn,,51.40052,5.47196,P,PPL,NL,,06,0866,,,2785,,20,Europe/Amsterdam,2017-03-24,"(5.47196, 51.40052)",2745126
2745349,Vogelzang,Vogelzang,,51.51902,5.58376,P,PPLL,NL,,06,1659,,,0,,15,Europe/Amsterdam,2009-01-02,"(5.58376, 51.51902)",2745349
2745355,Vogelsberg,Vogelsberg,,51.31667,5.61667,P,PPL,NL,,06,1706,,,0,,29,Europe/Amsterdam,2011-06-04,"(5.61667, 51.31667)",2743972
2745359,Polder Vogelenzang,Polder Vogelenzang,,51.76738,4.83102,T,PLDR,NL,,06,,,,0,,-1,Europe/Amsterdam,2011-04-19,"(4.83102, 51.76738)",2749990
2745361,Vogelenzang,Vogelenzang,,51.62939,5.37661,P,PPLL,NL,,06,0845,,,0,,7,Europe/Amsterdam,2017-08-16,"(5.37661, 51.62939)",2743993
2745362,Vogelenzang,Vogelenzang,"Vogelenzang,Vogelgezang",51.53333,4.23333,P,PPL,NL,,06,0748,,,0,,-1,Europe/Amsterdam,2012-01-17,"(4.23333, 51.53333)",2743713
2745363,Vogelenzang,Vogelenzang,,51.42998,4.78686,L,LCTY,NL,,06,0744,,,0,,13,Europe/Amsterdam,2017-08-16,"(4.78686, 51.42998)",2744297
2745370,Voederheil,Voederheil,,51.7075,5.66528,P,PPL,NL,,06,1991,,,0,,19,Europe/Amsterdam,2022-09-30,"(5.66528, 51.7075)",2743934
2745373,Vlokhoven,Vlokhoven,,51.46667,5.48333,P,PPL,NL,,06,0772,,,3570,,17,Europe/Amsterdam,2017-03-24,"(5.48333, 51.46667)",2744250
2745374,Vloet,Vloet,Vloed,51.64583,5.64444,P,PPL,NL,,06,1991,,,0,,17,Europe/Amsterdam,2022-09-30,"(5.64444, 51.64583)",2743934
2745376,Vloeieind,Vloeieind,,51.44417,5.77083,P,PPL,NL,,06,0762,,,0,,24,Europe/Amsterdam,2007-06-03,"(5.77083, 51.44417)",2743978
2745377,Vloeieind,Vloeieind,,51.39833,5.15139,P,PPL,NL,,06,1667,,,0,,28,Europe/Amsterdam,2007-06-03,"(5.15139, 51.39833)",2744136
2745394,Vlijmensch Ven,Vlijmensch Ven,,51.6799,5.20241,L,LCTY,NL,,06,0797,,,0,,1,Europe/Amsterdam,2017-08-16,"(5.20241, 51.6799)",2745316
2745396,Vlijmen,Vlijmen,,51.6975,5.21667,P,PPL,NL,,06,0797,,,0,,4,Europe/Amsterdam,2017-10-17,"(5.21667, 51.6975)",2745316
2745414,Vlierden,Vlierden,,51.445,5.75833,P,PPL,NL,,06,0762,,,1115,,26,Europe/Amsterdam,2017-10-17,"(5.75833, 51.445)",2743978
2745426,Vliegenberg,Vliegenberg,Vliegenberg,51.58153,6.01035,T,HLL,NL,,06,1982,,,0,,15,Europe/Amsterdam,2022-09-30,"(6.01035, 51.58153)",2743796
2745428,Vliedberg,Vliedberg,,51.68961,5.19031,P,PPL,NL,,06,0797,,,4445,,4,Europe/Amsterdam,2017-03-24,"(5.19031, 51.68961)",2745316
2745432,Vleut,Vleut,,51.532,5.40841,P,PPL,NL,,06,0753,,,0,,14,Europe/Amsterdam,2009-01-13,"(5.40841, 51.532)",2744424
2745433,Vlerken,Vlerken,,51.40448,5.69178,P,PPLL,NL,,06,0847,,,0,,23,Europe/Amsterdam,2008-12-26,"(5.69178, 51.40448)",2744347
2745435,Vleij,Vleij,"Vlei,Vleij",51.64764,4.38406,H,STM,NL,,06,,,,0,,1,Europe/Amsterdam,2011-01-10,"(4.38406, 51.64764)",2749990
2745436,Vleet,Vleet,,51.45583,4.4,P,PPL,NL,,06,1674,,,0,,11,Europe/Amsterdam,2007-06-03,"(4.4, 51.45583)",2743612
2745437,Vleesbroek,Vleesbroek,"Vleesbroek,Vleeschbroek",51.55647,5.39379,L,PRK,NL,,06,0757,,,0,,8,Europe/Amsterdam,2017-08-16,"(5.39379, 51.55647)",2745174
2745450,Vlasroot,Vlasroot,,51.38333,5.41667,L,LCTY,NL,,06,0861,,,0,,23,Europe/Amsterdam,2017-08-16,"(5.41667, 51.38333)",2743844
2745451,Vlasmeer,Vlasmeer,,51.64911,5.29659,P,PPL,NL,,06,0865,,,0,,7,Europe/Amsterdam,2011-04-19,"(5.29659, 51.64911)",2743490
2745452,Vlas,Vlas,,51.36917,5.71528,P,PPL,NL,,06,0847,,,0,,26,Europe/Amsterdam,2007-06-03,"(5.71528, 51.36917)",2744347
2745462,Vlagberg,Vlagberg,,51.61333,5.85972,P,PPL,NL,,06,1982,,,0,,19,Europe/Amsterdam,2022-09-30,"(5.85972, 51.61333)",2743796
2745472,Visvijvers,Visvijvers,,51.35587,5.4883,H,LK,NL,,06,,,,0,,21,Europe/Amsterdam,2011-04-19,"(5.4883, 51.35587)",2749990
2745478,Zuidergat van de Vissen,Zuidergat van de Vissen,"Zuidergat van de Visschen,Zuidergat van de Vissen",51.7308,4.73408,H,STMD,NL,,06,,,,0,,1,Europe/Amsterdam,2011-01-10,"(4.73408, 51.7308)",2749990
2745479,Noordergat van de Vissen,Noordergat van de Vissen,"Noordergat van de Visschen,Noordergat van de Vissen",51.73649,4.73176,H,STMD,NL,,06,,,,0,,1,Europe/Amsterdam,2011-01-10,"(4.73176, 51.73649)",2749990
2745483,Visdonk,Visdonk,,51.51667,4.5,L,PRK,NL,,06,1674,,,0,,9,Europe/Amsterdam,2017-08-16,"(4.5, 51.51667)",2743612
2745484,Visdonk,Visdonk,,51.5025,4.48472,P,PPL,NL,,06,1674,,,0,,9,Europe/Amsterdam,2007-06-03,"(4.48472, 51.5025)",2743612
2745485,Vischven,Vischven,,51.41896,4.81489,H,MRSH,NL,,06,,,,0,,14,Europe/Amsterdam,2011-01-10,"(4.81489, 51.41896)",2749990
2745486,Polder Vischplaat,Polder Vischplaat,,51.7361,4.75431,T,PLDR,NL,,06,,,,0,,0,Europe/Amsterdam,2011-04-19,"(4.75431, 51.7361)",2749990
2745488,Visberg,Visberg,,51.55333,4.41667,P,PPL,NL,,06,0851,,,0,,1,Europe/Amsterdam,2007-06-03,"(4.41667, 51.55333)",2743534
2745500,Vinkenbroeksche Weihoek,Vinkenbroeksche Weihoek,,51.52089,4.42809,L,LCTY,NL,,06,1674,,,0,,2,Europe/Amsterdam,2017-08-16,"(4.42809, 51.52089)",2743612
2745501,Vinkenbroek,Vinkenbroek,,51.5225,4.41111,P,PPL,NL,,06,1674,,,0,,4,Europe/Amsterdam,2007-06-03,"(4.41111, 51.5225)",2743612
2745502,Vinkenberg,Vinkenberg,,51.53333,5.17778,P,PPL,NL,,06,0824,,,0,,12,Europe/Amsterdam,2007-06-03,"(5.17778, 51.53333)",2743960
2745503,Vinkel,Vinkel,,51.70583,5.4625,P,PPL,NL,,06,0796,,,60,,8,Europe/Amsterdam,2017-10-17,"(5.4625, 51.70583)",2745503
2745513,Vilheide,Vilheide,,51.69167,5.76944,P,PPL,NL,,06,1982,,,0,,20,Europe/Amsterdam,2022-09-30,"(5.76944, 51.69167)",2743796
2745529,Vijfhuizen,Vijfhuizen,,51.64753,4.88093,P,PPL,NL,,06,0826,,,0,,4,Europe/Amsterdam,2008-02-01,"(4.88093, 51.64753)",2745027
2745530,Vijfhuizen,Vijfhuizen,,51.6075,5.09444,P,PPL,NL,,06,0855,,,0,,11,Europe/Amsterdam,2007-06-03,"(5.09444, 51.6075)",2744349
2745531,Vijfhuizen,Vijfhuizen,,51.5225,4.98472,P,PPL,NL,,06,0785,,,0,,16,Europe/Amsterdam,2007-06-03,"(4.98472, 51.5225)",2744083
2745536,Vijfhoek,Vijfhoek,,51.5075,4.36389,P,PPL,NL,,06,1674,,,0,,8,Europe/Amsterdam,2007-06-03,"(4.36389, 51.5075)",2743612
2745542,Vijdtpolder,Vijdtpolder,,51.38291,4.28145,T,PLDR,NL,,06,,,,0,,0,Europe/Amsterdam,2011-04-19,"(4.28145, 51.38291)",2749990
2745543,Vijcie,Vijcie,,51.82,4.91667,P,PPL,NL,,06,1959,,,0,,0,Europe/Amsterdam,2019-01-20,"(4.91667, 51.82)",2744033
2745550,Vierlingsbeek,Vierlingsbeek,"Beek,Beke,Vierlincsbeec,Vierlingsbeek",51.595,6.00972,P,PPL,NL,,06,1982,,,0,,15,Europe/Amsterdam,2022-09-30,"(6.00972, 51.595)",2743796
2745561,Vierhoevensche Watergang,Vierhoevensche Watergang,,51.58486,4.35226,H,STMC,NL,,06,,,,0,,-1,Europe/Amsterdam,2011-01-10,"(4.35226, 51.58486)",2749990
2745562,Vierhoeven,Vierhoeven,,51.56939,4.36234,L,LCTY,NL,,06,0851,,,0,,-2,Europe/Amsterdam,2017-08-16,"(4.36234, 51.56939)",2743534
2745572,Vierbannen,Vierbannen,Vierbannen,51.74917,4.90972,P,PPL,NL,,06,1959,,,275,,2,Europe/Amsterdam,2019-01-20,"(4.90972, 51.74917)",2744033
2745577,Victoriahoeve,Victoriahoeve,,51.73333,4.81667,S,FRM,NL,,06,1719,,,0,,1,Europe/Amsterdam,2011-06-04,"(4.81667, 51.73333)",2743971
2745581,Vianen,Vianen,Vianen NB,51.71833,5.85694,P,PPL,NL,,06,1982,,,950,,11,Europe/Amsterdam,2022-09-30,"(5.85694, 51.71833)",2743796
2745589,Vessem,Vessem,,51.42083,5.28889,P,PPL,NL,,06,0770,,,2220,,24,Europe/Amsterdam,2024-08-16,"(5.28889, 51.42083)",2744208
2745594,Vervul,Vervul,,51.53057,4.67235,L,LCTY,NL,,06,0879,,,0,,4,Europe/Amsterdam,2017-08-16,"(4.67235, 51.53057)",2743515
2745596,Verrenbest,Verrenbest,Verrebest,51.51649,5.39523,P,PPLX,NL,,06,0753,,,0,,16,Europe/Amsterdam,2008-02-01,"(5.39523, 51.51649)",2744424
2745597,Verreheide,Verreheide,,51.5775,5.69583,P,PPL,NL,,06,1652,,,0,,17,Europe/Amsterdam,2007-06-03,"(5.69583, 51.5775)",2744100
2745598,Vernhout,Vernhout,Varenhout,51.5375,5.4375,P,PPL,NL,,06,1948,,,0,,14,Europe/Amsterdam,2017-08-16,"(5.4375, 51.5375)",2743489
2745600,Verloren Hoek,Verloren Hoek,,51.60583,4.68333,P,PPL,NL,,06,0758,,,0,,2,Europe/Amsterdam,2007-06-03,"(4.68333, 51.60583)",2744093
2745609,Verhoven,Verhoven,,51.55,4.92361,P,PPL,NL,,06,0784,,,0,,15,Europe/Amsterdam,2007-06-03,"(4.92361, 51.55)",2744882
2745612,Vergoor,Vergoor,,51.4715,4.86106,H,STM,NL,,06,,,,0,,15,Europe/Amsterdam,2011-04-19,"(4.86106, 51.4715)",2749990
2745627,Venushoek,Venushoek,,51.60977,5.43316,P,PPL,NL,,06,1948,,,0,,9,Europe/Amsterdam,2017-08-16,"(5.43316, 51.60977)",2743489
2745631,Vensehoeve,Vensehoeve,,51.53333,5.48333,S,FRM,NL,,06,0848,,,0,,13,Europe/Amsterdam,2011-06-04,"(5.48333, 51.53333)",2744203
2745632,Venrode,Venrode,,51.6152,5.32268,L,PRK,NL,,06,0757,,,0,,12,Europe/Amsterdam,2017-08-16,"(5.32268, 51.6152)",2745174
2745636,Vennerbrug,Vennerbrug,,51.36518,5.574,S,BDG,NL,,06,1658,,,0,,20,Europe/Amsterdam,2011-06-04,"(5.574, 51.36518)",2743838
2745642,Venkant,Venkant,,51.68333,5.21667,P,PPL,NL,,06,0797,,,0,,2,Europe/Amsterdam,2011-06-04,"(5.21667, 51.68333)",2745316
2745643,Venkant,Venkant,,51.64828,5.36253,P,PPL,NL,,06,0845,,,0,,6,Europe/Amsterdam,2011-06-04,"(5.36253, 51.64828)",2743993
2745646,Venhorst,Venhorst,,51.60833,5.7375,P,PPL,NL,,06,0755,,,1050,,25,Europe/Amsterdam,2017-10-17,"(5.7375, 51.60833)",2744073
2745651,Veneind,Veneind,,51.4175,5.29722,P,PPL,NL,,06,0770,,,0,,25,Europe/Amsterdam,2007-06-03,"(5.29722, 51.4175)",2744208
2745654,Venakkerbosch,Venakkerbosch,,51.26797,5.30237,V,FRST,NL,,06,,,,0,,47,Europe/Amsterdam,2011-04-19,"(5.30237, 51.26797)",2749990
2745655,Ven,Ven,,51.64,5.55,P,PPL,NL,,06,1948,,,4430,,11,Europe/Amsterdam,2017-08-16,"(5.55, 51.64)",2743489
2745656,Ven,Ven,,51.51667,5.74722,P,PPL,NL,,06,1652,,,0,,21,Europe/Amsterdam,2007-06-03,"(5.74722, 51.51667)",2744100
2745657,Ven,Ven,,51.36667,5.56389,P,PPL,NL,,06,1658,,,0,,24,Europe/Amsterdam,2007-06-03,"(5.56389, 51.36667)",2743838
2745678,Velp,Velp,Fellepa,51.74833,5.71806,P,PPL,NL,,06,1982,,,0,,11,Europe/Amsterdam,2022-09-30,"(5.71806, 51.74833)",2743796
2745682,Velmolen,Velmolen,,51.65,5.63611,P,PPL,NL,,06,1991,,,0,,18,Europe/Amsterdam,2022-09-30,"(5.63611, 51.65)",2743934
2745704,Gemeente Veldhoven,Gemeente Veldhoven,"Gemeente Veldhoven,Veldhoven,Veldhoven Municipality",51.41253,5.38052,A,ADM2,NL,,06,0861,,,45500,,22,Europe/Amsterdam,2023-08-10,"(5.38052, 51.41253)",2743844
2745705,Veldhoven,Veldhoven,,51.56667,5.08333,P,PPLX,NL,,06,0855,,,0,,14,Europe/Amsterdam,2011-06-04,"(5.08333, 51.56667)",2744349
2745706,Veldhoven,Veldhoven,,51.41833,5.40278,P,PPL,NL,,06,0861,,,5340,,22,Europe/Amsterdam,2017-10-17,"(5.40278, 51.41833)",2743844
2745715,Veldersbos,Veldersbos,"Veldersbos,Veldersbosch",51.54815,5.34425,V,FRST,NL,,06,,,,0,,21,Europe/Amsterdam,2012-01-17,"(5.34425, 51.54815)",2749990
2745718,Veldekensberg,Veldekensberg,,51.49365,4.62078,L,LCTY,NL,,06,0879,,,0,,11,Europe/Amsterdam,2017-08-16,"(4.62078, 51.49365)",2743515
2745721,Veldbraak,Veldbraak,,51.44,4.96389,P,PPL,NL,,06,0744,,,0,,27,Europe/Amsterdam,2007-06-03,"(4.96389, 51.44)",2744297
2745725,Gemeente Veghel,Gemeente Veghel,"Gemeente Veghel,Veghel",51.60185,5.56749,A,ADM2H,NL,,06,0860,,,37465,,9,Europe/Amsterdam,2017-08-14,"(5.56749, 51.60185)",2745725
2745726,Veghel,Veghel,"Vechel,Vegel,Vegelis,Veghel,Vexel,feheru,fei he er,peheol,wgl,Вегел,Վեխել,وگل,フェヘル,費赫爾,페헐",51.61667,5.54861,P,PPL,NL,,06,1948,,,25352,,11,Europe/Amsterdam,2017-10-17,"(5.54861, 51.61667)",2743489
2745784,Veen,Veen,,51.7775,5.10833,P,PPL,NL,,06,1959,,,2991,,4,Europe/Amsterdam,2021-08-30,"(5.10833, 51.7775)",2744033
2745806,Varkenshoek,Varkenshoek,Varkenshoek,51.7,5.35,P,PPL,NL,,06,0796,,,0,,6,Europe/Amsterdam,2018-12-04,"(5.35, 51.7)",2745503
2745815,Van Tuyllhoeve,Van Tuyllhoeve,,51.38333,5.53333,S,FRM,NL,,06,1658,,,0,,23,Europe/Amsterdam,2011-06-04,"(5.53333, 51.38333)",2743838
2745824,Gat van Van Kampen,Gat van Van Kampen,,51.74253,4.76147,H,STMD,NL,,06,,,,0,,1,Europe/Amsterdam,2011-04-19,"(4.76147, 51.74253)",2749990
2745833,Van der Duijnspolder,Van der Duijnspolder,,51.40541,4.27084,T,PLDR,NL,,06,,,,0,,0,Europe/Amsterdam,2011-04-19,"(4.27084, 51.40541)",2749990
2745859,Gemeente Valkenswaard,Gemeente Valkenswaard,"Gemeente Valkenswaard,Valkenswaard,Valkenswaard Municipality",51.32575,5.45323,A,ADM2,NL,,06,0858,,,31221,,30,Europe/Amsterdam,2023-08-10,"(5.45323, 51.32575)",2744008
2745860,Valkenswaard,Valkenswaard,"Valkenswaard,Valkeswaerd",51.35083,5.45972,P,PPL,NL,,06,0858,,,31071,,27,Europe/Amsterdam,2017-10-17,"(5.45972, 51.35083)",2744008
2745866,Valkenhorst,Valkenhorst,,51.35618,5.52262,L,PRK,NL,,06,1658,,,0,,30,Europe/Amsterdam,2017-08-16,"(5.52262, 51.35618)",2743838
2745867,Valkenhorst,Valkenhorst,,51.3525,5.50139,P,PPL,NL,,06,1658,,,0,,28,Europe/Amsterdam,2007-06-03,"(5.50139, 51.3525)",2743838
2745871,Valkenburg,Valkenburg,"Het Valkenberg,Valkenburg",51.53333,4.83333,L,PRK,NL,,06,1723,,,0,,16,Europe/Amsterdam,2017-08-16,"(4.83333, 51.53333)",2744099
2745873,Valkenburg,Valkenburg,Valkenberg,51.55,4.83333,P,PPLL,NL,,06,0758,,,0,,8,Europe/Amsterdam,2011-06-04,"(4.83333, 51.55)",2744093
2745895,Vaartkant,Vaartkant,,51.56667,4.66667,P,PPL,NL,,06,0777,,,0,,4,Europe/Amsterdam,2009-10-09,"(4.66667, 51.56667)",2743542
2745896,Vaartbroek,Vaartbroek,,51.47954,5.49806,P,PPL,NL,,06,0772,,,5200,,19,Europe/Amsterdam,2017-04-08,"(5.49806, 51.47954)",2744250
2745898,Vaarsel,Vaarsel,,51.38333,5.68333,P,PPL,NL,,06,0847,,,0,,24,Europe/Amsterdam,2011-06-04,"(5.68333, 51.38333)",2744347
2745899,Vaarsche Hoef,Vaarsche Hoef,"Vaarsche-Hoeve,Vaarse Hoeve",51.40583,5.67917,P,PPL,NL,,06,0847,,,0,,24,Europe/Amsterdam,2007-06-03,"(5.67917, 51.40583)",2744347
2745900,Vaareind,Vaareind,,51.58667,4.71667,P,PPL,NL,,06,0758,,,0,,3,Europe/Amsterdam,2007-06-03,"(4.71667, 51.58667)",2744093
2745927,Urkhoven,Urkhoven,,51.43583,5.53194,P,PPL,NL,,06,0772,,,180,,18,Europe/Amsterdam,2017-03-24,"(5.53194, 51.43583)",2744250
2745938,Ulvenhoutsche Bosch,Ulvenhoutsche Bosch,,51.55453,4.80814,V,FRST,NL,,06,,,,0,,11,Europe/Amsterdam,2011-04-19,"(4.80814, 51.55453)",2749990
2745939,Boswachterij Ulvenhout,Boswachterij Ulvenhout,,51.55,4.88333,L,PRK,NL,,06,0784,,,0,,9,Europe/Amsterdam,2017-08-16,"(4.88333, 51.55)",2744882
2745940,Ulvenhout,Ulvenhout,Ulvenhout,51.54907,4.79931,P,PPL,NL,,06,0758,,,4520,,6,Europe/Amsterdam,2017-10-17,"(4.79931, 51.54907)",2744093
2745945,Ullingse-Bergen,Ullingse-Bergen,"Ullingensche Bergen,Ullingsche Bergen,Ullingse-Bergen",51.62404,5.8343,V,HTH,NL,,06,,,,0,,21,Europe/Amsterdam,2012-01-17,"(5.8343, 51.62404)",2749990
2745946,Ullingen,Ullingen,Ullinger,51.635,5.85833,P,PPL,NL,,06,1982,,,0,,17,Europe/Amsterdam,2022-09-30,"(5.85833, 51.635)",2743796
2745949,Ulicoten,Ulicoten,Ulekoten,51.4575,4.85833,P,PPL,NL,,06,0744,,,470,,20,Europe/Amsterdam,2017-10-17,"(4.85833, 51.4575)",2744297
2745950,Ulicootsche Heide,Ulicootsche Heide,,51.46026,4.89206,L,LCTY,NL,,06,0744,,,0,,19,Europe/Amsterdam,2017-08-16,"(4.89206, 51.46026)",2744297
2745951,Ulicootsche Heide,Ulicootsche Heide,"Ulicootsche Heide,Ulicootse Heide",51.44015,4.87232,V,HTH,NL,,06,,,,0,,19,Europe/Amsterdam,2012-01-17,"(4.87232, 51.44015)",2749990
2745957,Uitwijk,Uitwijk,,51.78583,5.00694,P,PPL,NL,,06,1959,,,340,,1,Europe/Amsterdam,2021-08-30,"(5.00694, 51.78583)",2744033
2746003,Udenhout,Udenhout,,51.60917,5.14306,P,PPL,NL,,06,0855,,,7650,,11,Europe/Amsterdam,2017-10-17,"(5.14306, 51.60917)",2744349
2746004,Gemeente Uden,Gemeente Uden,Uden,51.65682,5.61258,A,ADM2H,NL,,06,0856,,,41725,,18,Europe/Amsterdam,2022-09-30,"(5.61258, 51.65682)",2746004
2746005,Uden,Uden,"UDE,Uden,Уден",51.66083,5.61944,P,PPL,NL,,06,1991,,,34601,,18,Europe/Amsterdam,2022-09-30,"(5.61944, 51.66083)",2743934
2746029,’t Zand,'t Zand,"'t Zand,Het Zand,Zand,’t Zand",51.57234,5.05524,P,PPLX,NL,,06,0855,,,0,,14,Europe/Amsterdam,2020-06-10,"(5.05524, 51.57234)",2744349
2746034,t Zand,t Zand,Zand,51.81417,4.9625,P,PPL,NL,,06,1959,,,0,,2,Europe/Amsterdam,2019-01-20,"(4.9625, 51.81417)",2744033
2746035,'t Zand,'t Zand,,51.65336,5.4957,L,LCTY,NL,,06,1721,,,0,,8,Europe/Amsterdam,2017-08-16,"(5.4957, 51.65336)",2743850
2746041,’t Witven,'t Witven,,51.4,5.41667,L,LCTY,NL,,06,0861,,,0,,19,Europe/Amsterdam,2017-08-16,"(5.41667, 51.4)",2743844
2746043,Twisselt,Twisselt,,51.39558,5.12061,P,PPL,NL,,06,1667,,,0,,27,Europe/Amsterdam,2011-04-19,"(5.12061, 51.39558)",2744136
2746068,Twee Gebroeders,Twee Gebroeders,,51.75606,5.13456,S,ML,NL,,06,1959,,,0,,4,Europe/Amsterdam,2019-01-20,"(5.13456, 51.75606)",2744033
2746090,’t Ven,'t Ven,,51.43895,5.4416,P,PPLX,NL,,06,0772,,,0,,22,Europe/Amsterdam,2011-06-04,"(5.4416, 51.43895)",2744250
2746095,Tuuthees,Tuuthees,,51.60333,5.98333,P,PPL,NL,,06,1982,,,0,,15,Europe/Amsterdam,2022-09-30,"(5.98333, 51.60333)",2743796
2746104,Turnhoutse Heide,Turnhoutse Heide,"Turnhoutsche Heide,Turnhoutse Heide",51.38045,5.09867,V,HTH,NL,,06,,,,0,,36,Europe/Amsterdam,2012-01-17,"(5.09867, 51.38045)",2749990
2746106,Polder Turfzakken,Polder Turfzakken,,51.73958,4.81941,T,PLDR,NL,,06,,,,0,,0,Europe/Amsterdam,2011-04-19,"(4.81941, 51.73958)",2749990
2746107,Turfwater,Turfwater,,51.3,5.53333,V,HTH,NL,,06,,,,0,,27,Europe/Amsterdam,1994-01-08,"(5.53333, 51.3)",2749990
2746109,Turfvaart Bijloop,Turfvaart Bijloop,"Bijloop,Turfvaart,Turfvaart Bijloop",51.53101,4.71511,H,STMC,NL,,06,,,,0,,4,Europe/Amsterdam,2011-01-10,"(4.71511, 51.53101)",2749990
2746111,Turfhoofd,Turfhoofd,,51.55,4.45,P,PPLX,NL,,06,1674,,,0,,3,Europe/Amsterdam,2011-06-04,"(4.45, 51.55)",2743612
2746119,Tulder,Tulder,,51.43409,5.10659,L,LCTY,NL,,06,0798,,,0,,42,Europe/Amsterdam,2017-08-16,"(5.10659, 51.43409)",2744672
2746129,Tuimelaar,Tuimelaar,,51.56243,4.40503,L,LCTY,NL,,06,0851,,,0,,-1,Europe/Amsterdam,2017-08-16,"(4.40503, 51.56243)",2743534
2746141,Schoor,Schoor,,51.5425,5.45139,P,PPL,NL,,06,1948,,,0,,14,Europe/Amsterdam,2017-08-16,"(5.45139, 51.5425)",2743489
2746156,Trimpert,Trimpert,,51.42833,5.62083,P,PPL,NL,,06,1771,,,0,,21,Europe/Amsterdam,2007-06-03,"(5.62083, 51.42833)",2743956
2746163,Triangelpolder,Triangelpolder,,51.59802,4.34714,T,PLDR,NL,,06,,,,0,,-1,Europe/Amsterdam,2011-04-19,"(4.34714, 51.59802)",2749990
2746164,Trentsebossen,Trentsebossen,"Trentsche Bossen,Trentsebossen",51.67453,5.70077,V,FRST,NL,,06,,,,0,,27,Europe/Amsterdam,2012-01-17,"(5.70077, 51.67453)",2749990
2746165,Trent,Trent,,51.68083,5.7,P,PPL,NL,,06,1991,,,0,,19,Europe/Amsterdam,2022-09-30,"(5.7, 51.68083)",2743934
2746168,Tregelaar,Tregelaar,,51.5275,5.30694,P,PPL,NL,,06,0823,,,0,,11,Europe/Amsterdam,2007-06-03,"(5.30694, 51.5275)",2744782
2746169,Treeswijk,Treeswijk,,51.37161,5.46291,S,EST,NL,,06,0866,,,0,,30,Europe/Amsterdam,2011-06-04,"(5.46291, 51.37161)",2745126
2746179,’t Raak,'t Raak,,51.49744,5.12675,L,LCTY,NL,,06,0798,,,0,,14,Europe/Amsterdam,2017-08-16,"(5.12675, 51.49744)",2744672
2746181,Toven,Toven,,51.64,5.85833,P,PPL,NL,,06,1982,,,0,,15,Europe/Amsterdam,2022-09-30,"(5.85833, 51.64)",2743796
2746188,Toterfout,Toterfout,,51.4175,5.34861,P,PPL,NL,,06,0861,,,0,,26,Europe/Amsterdam,2007-06-03,"(5.34861, 51.4175)",2743844
2746197,Tooverberg,Tooverberg,Tooverberg,51.37174,4.36727,T,HLL,NL,,06,0873,,,0,,18,Europe/Amsterdam,2018-12-04,"(4.36727, 51.37174)",2743530
2746199,Toom,Toom,,51.27,5.55972,P,PPL,NL,,06,1706,,,0,,32,Europe/Amsterdam,2007-06-03,"(5.55972, 51.27)",2743972
2746203,Tonnekreek,Tonnekreek,"Tonnelkreek,Tonnenkreek",51.67833,4.49306,P,PPL,NL,,06,1709,,,45,,-5,Europe/Amsterdam,2017-03-24,"(4.49306, 51.67833)",2743480
2746204,Tonnekreek,Tonnekreek,,51.68229,4.49268,H,CNL,NL,,06,,,,0,,-3,Europe/Amsterdam,2009-12-10,"(4.49268, 51.68229)",2749990
2746213,Tongeren,Tongeren,,51.59167,5.28889,P,PPL,NL,,06,0757,,,0,,7,Europe/Amsterdam,2007-06-03,"(5.28889, 51.59167)",2745174
2746215,Tongelre,Tongelre,Tongelre,51.44889,5.51978,P,PPLX,NL,,06,0772,,,19680,,18,Europe/Amsterdam,2012-01-17,"(5.51978, 51.44889)",2744250
2746216,Tongelaar,Tongelaar,,51.71299,5.7801,S,CSTL,NL,,06,1982,,,0,,13,Europe/Amsterdam,2022-09-30,"(5.7801, 51.71299)",2743796
2746220,Tommelse Heide,Tommelse Heide,"Tommelsche Heide,Tommelse Heide",51.41615,4.91231,L,LCTY,NL,,06,0744,,,0,,21,Europe/Amsterdam,2017-08-16,"(4.91231, 51.41615)",2744297
2746221,Tommel,Tommel,,51.4325,4.925,P,PPL,NL,,06,0744,,,0,,28,Europe/Amsterdam,2007-06-03,"(4.925, 51.4325)",2744297
2746235,Tolberg,Tolberg,,51.51667,4.43333,P,PPLX,NL,,06,1674,,,0,,4,Europe/Amsterdam,2009-01-04,"(4.43333, 51.51667)",2743612
2746245,’t Look,'t Look,,51.41779,5.39051,P,PPLX,NL,,06,0861,,,0,,22,Europe/Amsterdam,2011-06-04,"(5.39051, 51.41779)",2743844
2746259,’t Kreijll,'t Kreijll,,51.4,5.53333,S,EST,NL,,06,1658,,,0,,22,Europe/Amsterdam,2011-06-04,"(5.53333, 51.4)",2743838
2746282,Tivoli,Tivoli,,51.42069,5.50818,P,PPLX,NL,,06,0772,,,1495,,20,Europe/Amsterdam,2017-04-08,"(5.50818, 51.42069)",2744250
2746291,Timmereind,Timmereind,,51.37917,5.43472,P,PPL,NL,,06,0866,,,0,,19,Europe/Amsterdam,2007-06-03,"(5.43472, 51.37917)",2745126
2746300,Gemeente Tilburg,Gemeente Tilburg,"Gemeente Tilburg,Tilburg,Tilburg Municipality",51.57787,5.06555,A,ADM2,NL,,06,0855,,,215521,,14,Europe/Amsterdam,2023-08-10,"(5.06555, 51.57787)",2744349
2746301,Tilburg,Tilburg,"Cilburg,Tilburch,Tilburg,Tilburga,Tilburgas,Tilburgo,Tilia,di er bao,thi lburk,tilbwileuheu,tiruburufu,tylbwrkh,Тилбург,Тілбург,Цілбург,تیلبورخ,ٹلبرگ,ทิลบืร์ก,ტილბურგი,ティルブルフ,蒂尔堡,틸뷔르흐",51.55551,5.0913,P,PPL,NL,,06,0855,,,199613,,16,Europe/Amsterdam,2019-09-05,"(5.0913, 51.55551)",2744349
2746306,Tiggeltscheberg,Tiggeltscheberg,Ticheltse Berg,51.52083,4.67361,P,PPL,NL,,06,0879,,,0,,13,Europe/Amsterdam,2007-06-03,"(4.67361, 51.52083)",2743515
2746307,Tiggeltsche Akkers,Tiggeltsche Akkers,,51.50112,4.6801,L,LCTY,NL,,06,0879,,,0,,9,Europe/Amsterdam,2017-08-16,"(4.6801, 51.50112)",2743515
2746308,Tiggelt,Tiggelt,,51.51,4.6875,P,PPL,NL,,06,0879,,,0,,10,Europe/Amsterdam,2007-06-03,"(4.6875, 51.51)",2743515
2746344,’t Hool,'t Hool,,51.48333,5.48333,P,PPLX,NL,,06,0772,,,0,,18,Europe/Amsterdam,2009-01-05,"(5.48333, 51.48333)",2744250
2746354,'t Hofke,'t Hofke,,51.44943,5.51926,P,PPLX,NL,,06,0772,,,3475,,19,Europe/Amsterdam,2017-03-24,"(5.51926, 51.44943)",2744250
2746363,Theresiahoeve,Theresiahoeve,,51.53333,5.46667,S,FRM,NL,,06,0848,,,0,,12,Europe/Amsterdam,2011-06-04,"(5.46667, 51.53333)",2744203
2746364,Theodorushaven,Theodorushaven,,51.5045,4.26218,H,HBR,NL,,06,,,,0,,3,Europe/Amsterdam,2009-10-09,"(4.26218, 51.5045)",2749990
2746365,Theetuin,Theetuin,,51.4975,5.30833,P,PPL,NL,,06,0823,,,0,,16,Europe/Amsterdam,2007-06-03,"(5.30833, 51.4975)",2744782
2746367,Theereheide,Theereheide,,51.63843,5.33729,P,PPL,NL,,06,0845,,,4045,,6,Europe/Amsterdam,2017-03-24,"(5.33729, 51.63843)",2743993
2746376,t Haantje,'t Haantje,,51.56917,4.38333,P,PPL,NL,,06,0851,,,0,,0,Europe/Amsterdam,2007-06-03,"(4.38333, 51.56917)",2743534
2746389,Teteringen,Teteringen,,51.60917,4.82083,P,PPL,NL,,06,0758,,,7230,,6,Europe/Amsterdam,2017-10-17,"(4.82083, 51.60917)",2744093
2746402,Tervoort,Tervoort,,51.575,4.83889,P,PPL,NL,,06,0758,,,0,,6,Europe/Amsterdam,2007-06-03,"(4.83889, 51.575)",2744093
2746417,Terover,Terover,,51.4725,4.97083,P,PPL,NL,,06,1723,,,0,,23,Europe/Amsterdam,2007-06-03,"(4.97083, 51.4725)",2744099
2746456,Terheijden,Terheijden,"Terheden,Terheide,Terheiden",51.64333,4.75417,P,PPL,NL,,06,1719,,,5910,,2,Europe/Amsterdam,2017-10-17,"(4.75417, 51.64333)",2743971
2746461,Tereyken,Tereyken,"Reiken,Ter Eiken,Tereijken,Terrijken",51.52667,5.69028,P,PPL,NL,,06,1652,,,0,,16,Europe/Amsterdam,2007-06-03,"(5.69028, 51.52667)",2744100
2746465,Ter Braakloop,Ter Braakloop,,51.56667,5.16667,L,RESN,NL,,06,,,,0,,9,Europe/Amsterdam,1994-01-08,"(5.16667, 51.56667)",2749990
2746479,Ter Aalsterbrug,Ter Aalsterbrug,,51.65,4.8,S,BDG,NL,,06,0826,,,0,,3,Europe/Amsterdam,2011-06-04,"(4.8, 51.65)",2745027
2746480,Ter Aalst,Ter Aalst,,51.64083,4.80556,P,PPL,NL,,06,0826,,,0,,2,Europe/Amsterdam,2007-06-03,"(4.80556, 51.64083)",2745027
2746482,Ten Vorsel,Ten Vorsel,,51.3475,5.22222,P,PPL,NL,,06,1728,,,0,,30,Europe/Amsterdam,2007-06-03,"(5.22222, 51.3475)",2746482
2746502,'t Eigen,'t Eigen,Eigen,51.51667,5.51667,P,PPLL,NL,,06,0848,,,0,,14,Europe/Amsterdam,2008-12-26,"(5.51667, 51.51667)",2744203
2746509,Teeffelsche Wetering,Teeffelsche Wetering,"Teeffelsche Wetering,Tefelsche Wetering",51.79557,5.51431,H,CNL,NL,,06,,,,0,,4,Europe/Amsterdam,2012-01-17,"(5.51431, 51.79557)",2749990
2746510,Teeffelen,Teeffelen,"Tefelen,Teffelen",51.7975,5.49306,P,PPL,NL,,06,0828,,,155,,8,Europe/Amsterdam,2017-10-17,"(5.49306, 51.7975)",2746510
2746513,t Coll,'t Coll,,51.44583,5.54167,P,PPL,NL,,06,0772,,,0,,15,Europe/Amsterdam,2007-06-03,"(5.54167, 51.44583)",2744250
2746569,Stuivezand,Stuivezand,,51.67,4.76667,P,PPL,NL,,06,1719,,,0,,0,Europe/Amsterdam,2007-06-03,"(4.76667, 51.67)",2743971
2746570,Stuivezand,Stuivezand,,51.48917,4.68056,P,PPL,NL,,06,0879,,,0,,7,Europe/Amsterdam,2007-06-03,"(4.68056, 51.48917)",2743515
2746584,Strooiendorp,Strooiendorp,,51.68083,4.69306,P,PPL,NL,,06,1709,,,0,,1,Europe/Amsterdam,2007-06-03,"(4.69306, 51.68083)",2743480
2746597,Strikberg,Strikberg,,51.6225,4.775,P,PPL,NL,,06,0758,,,0,,1,Europe/Amsterdam,2007-06-03,"(4.775, 51.6225)",2744093
2746599,Strijp,Strijp,,51.43421,5.45489,P,PPLX,NL,,06,0772,,,0,,21,Europe/Amsterdam,2011-06-04,"(5.45489, 51.43421)",2744250
2746601,Strijp,Strijp,,51.50083,5.62917,P,PPL,NL,,06,1659,,,0,,17,Europe/Amsterdam,2007-06-03,"(5.62917, 51.50083)",2745349
2746608,Strijen,Strijen,"Strien,Strijen",51.64974,4.8596,P,PPLX,NL,,06,0826,,,0,,2,Europe/Amsterdam,2012-01-17,"(4.8596, 51.64974)",2745027
2746611,Strijbosch,Strijbosch,,51.58042,5.70361,V,FRST,NL,,06,,,,0,,27,Europe/Amsterdam,2011-04-19,"(5.70361, 51.58042)",2749990
2746612,Strijbeeksche Heide,Strijbeeksche Heide,"Strijbeeksche Heide,Strijbeekse Heide",51.51628,4.81615,V,HTH,NL,,06,,,,0,,14,Europe/Amsterdam,2012-01-17,"(4.81615, 51.51628)",2749990
2746614,Strijbeek,Strijbeek,,51.50333,4.79583,P,PPL,NL,,06,1723,,,0,,7,Europe/Amsterdam,2017-10-17,"(4.79583, 51.50333)",2744099
2746616,Strepen,Strepen,,51.64083,5.64306,P,PPL,NL,,06,1991,,,0,,18,Europe/Amsterdam,2022-09-30,"(5.64306, 51.64083)",2743934
2746624,Stratum,Stratum,Stratum,51.42253,5.49981,P,PPLX,NL,,06,0772,,,0,,20,Europe/Amsterdam,2012-01-17,"(5.49981, 51.42253)",2744250
2746626,Straten,Straten,,51.51167,5.34306,P,PPL,NL,,06,0823,,,0,,14,Europe/Amsterdam,2007-06-03,"(5.34306, 51.51167)",2744782
2746632,Strabrechtse Heide,Strabrechtse Heide,"Strabrechtsche Heide,Strabrechtse Heide",51.3984,5.61089,L,RESN,NL,,06,,,,0,,21,Europe/Amsterdam,2012-01-17,"(5.61089, 51.3984)",2749990
2746633,Strabrecht,Strabrecht,,51.38839,5.58251,P,PPL,NL,,06,1658,,,0,,22,Europe/Amsterdam,2009-01-13,"(5.58251, 51.38839)",2743838
2746635,Straatse Heide,Straatse Heide,"Straatsche Heide,Straatse Heide",51.47281,5.32469,V,HTH,NL,,06,,,,0,,20,Europe/Amsterdam,2012-01-17,"(5.32469, 51.47281)",2749990
2746656,Stoppelbergen,Stoppelbergen,,51.37161,4.34797,L,PRK,NL,,06,0873,,,0,,18,Europe/Amsterdam,2017-08-16,"(4.34797, 51.37161)",2743530
2746659,Stoof,Stoof,,51.59917,4.47778,P,PPL,NL,,06,1655,,,585,,1,Europe/Amsterdam,2017-03-24,"(4.47778, 51.59917)",2746659
2746670,Stokske,Stokske,,51.55167,5.19028,P,PPL,NL,,06,0824,,,0,,11,Europe/Amsterdam,2007-06-03,"(5.19028, 51.55167)",2743960
2746676,Stokkelen,Stokkelen,,51.34917,5.32778,P,PPL,NL,,06,0770,,,0,,27,Europe/Amsterdam,2007-06-03,"(5.32778, 51.34917)",2744208
2746680,Stokhasselt,Stokhasselt,,51.58671,5.07404,P,PPLX,NL,,06,0855,,,0,,15,Europe/Amsterdam,2011-06-04,"(5.07404, 51.58671)",2744349
2746693,Stippelberg,Stippelberg,,51.53525,5.78349,V,FRST,NL,,06,,,,0,,30,Europe/Amsterdam,2011-04-19,"(5.78349, 51.53525)",2749990
2746694,Stippelberg,Stippelberg,,51.52324,5.80527,S,EST,NL,,06,1652,,,0,,31,Europe/Amsterdam,2011-06-04,"(5.80527, 51.52324)",2744100
2746695,Stiphout,Stiphout,Stiphout,51.48625,5.61798,P,PPLX,NL,,06,0794,,,0,,19,Europe/Amsterdam,2012-01-17,"(5.61798, 51.48625)",2746695
2746696,Stipdonk,Stipdonk,,51.445,5.68472,P,PPL,NL,,06,0847,,,0,,19,Europe/Amsterdam,2007-06-03,"(5.68472, 51.445)",2744347
2746712,Stevert,Stevert,,51.36833,5.36389,P,PPL,NL,,06,0770,,,0,,24,Europe/Amsterdam,2007-06-03,"(5.36389, 51.36833)",2744208
2746715,Stevensbergen,Stevensbergen,,51.27819,5.28142,V,HTH,NL,,06,,,,0,,43,Europe/Amsterdam,2011-04-19,"(5.28142, 51.27819)",2749990
2746716,Stevensbeek,Stevensbeek,,51.60333,5.91667,P,PPL,NL,,06,1982,,,455,,19,Europe/Amsterdam,2022-09-30,"(5.91667, 51.60333)",2743796
2746717,Stevenbeeksebossen,Stevenbeeksebossen,,51.6,5.95,V,FRST,NL,,06,,,,0,,26,Europe/Amsterdam,1994-01-08,"(5.95, 51.6)",2749990
2746718,Steurgat,Steurgat,"Het Steurgat,Steurgat",51.8081,4.87498,H,STMD,NL,,06,,,,0,,1,Europe/Amsterdam,2012-01-17,"(4.87498, 51.8081)",2749990
2746719,Steurgat,Steurgat,,51.80055,4.87218,P,PPL,NL,,06,1959,,,0,,2,Europe/Amsterdam,2019-01-20,"(4.87218, 51.80055)",2744033
2746729,Sterkselsche Aa,Sterkselsche Aa,"Kleine Rul,Sterkselsche A,Sterkselsche Aa",51.38201,5.59135,H,STM,NL,,06,,,,0,,31,Europe/Amsterdam,2012-01-17,"(5.59135, 51.38201)",2749990
2746730,Sterksel,Sterksel,,51.35167,5.61111,P,PPL,NL,,06,1658,,,910,,31,Europe/Amsterdam,2017-10-17,"(5.61111, 51.35167)",2743838
2746735,Stepekolk,Stepekolk,,51.455,5.61251,P,PPL,NL,,06,1771,,,1995,,17,Europe/Amsterdam,2017-04-08,"(5.61251, 51.455)",2743956
2746737,Stenenheul,Stenenheul,,51.77833,5.0125,P,PPL,NL,,06,1959,,,0,,0,Europe/Amsterdam,2019-01-20,"(5.0125, 51.77833)",2744033
2746757,Stegen,Stegen,,51.4125,5.76111,P,PPL,NL,,06,0743,,,0,,25,Europe/Amsterdam,2007-06-03,"(5.76111, 51.4125)",2744211
2746768,Steenweg,Steenweg,,51.51667,5.4,P,PPL,NL,,06,0753,,,0,,14,Europe/Amsterdam,2011-06-04,"(5.4, 51.51667)",2744424
2746773,Steensel,Steensel,,51.37667,5.35278,P,PPL,NL,,06,0770,,,1280,,28,Europe/Amsterdam,2017-10-17,"(5.35278, 51.37667)",2744208
2746776,Steenpaal,Steenpaal,,51.48109,4.48646,P,PPL,NL,,06,0840,,,0,,10,Europe/Amsterdam,2011-02-11,"(4.48646, 51.48109)",2743563
2746778,Steenoven,Steenoven,,51.60833,4.90278,P,PPL,NL,,06,0826,,,105,,8,Europe/Amsterdam,2017-03-24,"(4.90278, 51.60833)",2745027
2746786,Polder Steenenmuur,Polder Steenenmuur,,51.76882,4.84992,T,PLDR,NL,,06,,,,0,,-1,Europe/Amsterdam,2011-04-19,"(4.84992, 51.76882)",2749990
2746801,Gemeente Steenbergen,Gemeente Steenbergen,"Gemeente Steenbergen,Steenbergen,Steenbergen Municipality",51.60081,4.32077,A,ADM2,NL,,06,0851,,,24310,,0,Europe/Amsterdam,2023-08-10,"(4.32077, 51.60081)",2743534
2746804,Steenbergen,Steenbergen,Steenbergen,51.58417,4.31944,P,PPL,NL,,06,0851,,,23582,,2,Europe/Amsterdam,2017-10-17,"(4.31944, 51.58417)",2743534
2746806,Steelhoven,Steelhoven,,51.68167,4.82778,P,PPL,NL,,06,1719,,,0,,1,Europe/Amsterdam,2007-06-03,"(4.82778, 51.68167)",2743971
2746827,Statendam,Statendam,"De Statendam,Oosterhoutse Dam",51.68917,4.83889,P,PPL,NL,,06,0779,,,0,,1,Europe/Amsterdam,2007-06-03,"(4.83889, 51.68917)",2746827
2746830,Startwijk,Startwijk,,51.66417,5.93056,P,PPL,NL,,06,1982,,,0,,13,Europe/Amsterdam,2022-09-30,"(5.93056, 51.66417)",2743796
2746845,Standdaarbuiten,Standdaarbuiten,,51.61333,4.51389,P,PPL,NL,,06,1709,,,1930,,-1,Europe/Amsterdam,2017-10-17,"(4.51389, 51.61333)",2743480
2746846,Stampersgat,Stampersgat,,51.61333,4.44444,P,PPL,NL,,06,1655,,,1155,,3,Europe/Amsterdam,2017-10-17,"(4.44444, 51.61333)",2746659
2746847,Stamper,Stamper,,51.58868,4.40186,L,LCTY,NL,,06,0851,,,0,,-3,Europe/Amsterdam,2017-08-16,"(4.40186, 51.58868)",2743534
2746854,Stad van Gerwen,Stad van Gerwen,Stad van Gerven,51.5075,5.54028,P,PPL,NL,,06,0820,,,0,,14,Europe/Amsterdam,2007-06-03,"(5.54028, 51.5075)",2746854
2746863,Stadse Dijk,Stadse Dijk,,51.66667,4.4375,P,PPL,NL,,06,1709,,,0,,-2,Europe/Amsterdam,2007-06-03,"(4.4375, 51.66667)",2743480
2746874,Staartsche Heide,Staartsche Heide,"Staartsche Heide,Staartse Heide",51.41349,4.37226,V,HTH,NL,,06,,,,0,,24,Europe/Amsterdam,2012-01-17,"(4.37226, 51.41349)",2749990
2746875,Staartsche Duinen,Staartsche Duinen,,51.42201,4.37397,T,DUNE,NL,,06,,,,0,,26,Europe/Amsterdam,2011-04-19,"(4.37397, 51.42201)",2749990
2746876,Staartjesche Peel,Staartjesche Peel,,51.61972,5.77637,L,LCTY,NL,,06,1982,,,0,,23,Europe/Amsterdam,2022-09-30,"(5.77637, 51.61972)",2743796
2746878,Staalbergsven,Staalbergsven,"Staalbergsven,Staalbergven",51.57307,5.22151,H,LK,NL,,06,,,,0,,9,Europe/Amsterdam,2011-01-10,"(5.22151, 51.57307)",2749990
2746885,Spui,Spui,,51.63395,4.38046,H,CNL,NL,,06,,,,0,,-2,Europe/Amsterdam,2011-01-10,"(4.38046, 51.63395)",2749990
2746886,Sprundel,Sprundel,,51.5375,4.59722,P,PPL,NL,,06,0840,,,3625,,11,Europe/Amsterdam,2017-10-17,"(4.59722, 51.5375)",2743563
2746887,Spruitenstroompje,Spruitenstroompje,,51.50852,5.16852,H,STM,NL,,06,,,,0,,10,Europe/Amsterdam,2011-04-19,"(5.16852, 51.50852)",2749990
2746891,Sprokkelbosch,Sprokkelbosch,"Sprokkelbosch,Sprokkelenbosch",51.72083,5.38333,P,PPL,NL,,06,0796,,,0,,4,Europe/Amsterdam,2007-06-03,"(5.38333, 51.72083)",2745503
2746900,Spreeuwelse Heide,Spreeuwelse Heide,"Spreeuwelsche Heide,Spreeuwelse Heide",51.43942,5.20372,V,HTH,NL,,06,,,,0,,27,Europe/Amsterdam,2012-01-17,"(5.20372, 51.43942)",2749990
2746901,Sprangsevaart,Sprangsevaart,,51.66167,5.0625,P,PPL,NL,,06,0809,,,0,,4,Europe/Amsterdam,2007-06-03,"(5.0625, 51.66167)",2746901
2746903,Sprang-Capelle,Sprang,Sprang-Capelle,51.67,5.04856,P,PPL,NL,,06,0867,,,0,,5,Europe/Amsterdam,2017-10-17,"(5.04856, 51.67)",2743714
2746907,Spoordonk,Spoordonk,,51.5175,5.27083,P,PPL,NL,,06,0823,,,665,,11,Europe/Amsterdam,2017-03-24,"(5.27083, 51.5175)",2744782
2746914,Polder Spits en Hennip,Polder Spits en Hennip,,51.76667,4.86667,T,PLDR,NL,,06,,,,0,,0,Europe/Amsterdam,1994-01-08,"(4.86667, 51.76667)",2749990
2746919,Spinolaberg,Spinolaberg,,51.51417,4.26944,P,PPL,NL,,06,0748,,,0,,13,Europe/Amsterdam,2007-06-03,"(4.26944, 51.51417)",2743713
2746928,Spijkerboor,Spijkerboor,"Spijkerboor,Vaarweg Spijkerboor-Werkendam,Vaarweg Werkendam-Amer",51.71571,4.83823,H,STMD,NL,,06,,,,0,,1,Europe/Amsterdam,2012-01-17,"(4.83823, 51.71571)",2749990
2746939,Spijk,Spijk,,51.76917,5.12083,P,PPL,NL,,06,1959,,,830,,3,Europe/Amsterdam,2019-01-20,"(5.12083, 51.76917)",2744033
2746954,Spekt,Spekt,,51.495,5.53889,P,PPL,NL,,06,0820,,,0,,15,Europe/Amsterdam,2007-06-03,"(5.53889, 51.495)",2746854
2746967,Sparrenwijk,Sparrenwijk,,51.61031,5.31105,L,PRK,NL,,06,0757,,,0,,6,Europe/Amsterdam,2017-08-16,"(5.31105, 51.61031)",2745174
2746989,Spaansehoek,Spaansehoek,,51.52333,5.01111,P,PPL,NL,,06,0785,,,215,,16,Europe/Amsterdam,2017-03-24,"(5.01111, 51.52333)",2744083
2747003,Sonse Heide,Sonse Heide,,51.51667,5.43333,V,HTH,NL,,06,,,,0,,22,Europe/Amsterdam,1994-01-08,"(5.43333, 51.51667)",2749990
2747009,Gemeente Son en Breugel,Gemeente Son en Breugel,"Son,Son en Breugel,Son en Breugel Municipality",51.5097,5.49934,A,ADM2,NL,,06,0848,,,17552,,13,Europe/Amsterdam,2023-08-10,"(5.49934, 51.5097)",2744203
2747010,Son,Son,Son,51.51136,5.49282,P,PPL,NL,,06,0848,,,4930,,15,Europe/Amsterdam,2017-11-22,"(5.49282, 51.51136)",2744203
2747017,Somerenseheide,Somerenseheide,"Somerensche Heide,Somerenseheide",51.37067,5.65646,V,HTH,NL,,06,,,,0,,23,Europe/Amsterdam,2012-01-17,"(5.65646, 51.37067)",2749990
2747018,Someren-Heide,Someren-Heide,,51.34917,5.69861,P,PPL,NL,,06,0847,,,0,,28,Europe/Amsterdam,2007-06-03,"(5.69861, 51.34917)",2744347
2747019,Someren-Eind,Someren-Eind,"'t Eind,Eindje,Het Eind",51.3575,5.73333,P,PPL,NL,,06,0847,,,2725,,28,Europe/Amsterdam,2017-03-24,"(5.73333, 51.3575)",2744347
2747020,Gemeente Someren,Gemeente Someren,"Someren,Someren Municipality",51.38233,5.71049,A,ADM2,NL,,06,0847,,,19428,,27,Europe/Amsterdam,2023-08-10,"(5.71049, 51.38233)",2744347
2747021,Someren,Someren,"Someren,Zomere",51.385,5.71111,P,PPL,NL,,06,0847,,,10690,,27,Europe/Amsterdam,2017-10-17,"(5.71111, 51.385)",2744347
2747037,Soerendonk,Soerendonk,,51.30083,5.575,P,PPL,NL,,06,1706,,,1660,,28,Europe/Amsterdam,2017-10-17,"(5.575, 51.30083)",2743972
2747041,Snolleven,Snolleven,,51.50801,4.4907,L,LCTY,NL,,06,1674,,,0,,6,Europe/Amsterdam,2017-08-16,"(4.4907, 51.50801)",2743612
2747042,Snoertse Hoeve,Snoertse Hoeve,,51.43333,5.83333,S,FRM,NL,,06,0762,,,0,,27,Europe/Amsterdam,2011-06-04,"(5.83333, 51.43333)",2743978
2747043,Snoertjeswater,Snoertjeswater,,51.66667,5.16667,L,PRK,NL,,06,0865,,,0,,12,Europe/Amsterdam,2021-07-06,"(5.16667, 51.66667)",2743490
2747049,Snijders-Chaam,Snijders-Chaam,Snijders,51.52917,4.85417,P,PPL,NL,,06,1723,,,0,,9,Europe/Amsterdam,2007-06-03,"(4.85417, 51.52917)",2744099
2747052,Snepseind,Snepseind,,51.51667,5.33333,P,PPL,NL,,06,0823,,,0,,14,Europe/Amsterdam,2009-01-13,"(5.33333, 51.51667)",2744782
2747056,Snelle Loop,Snelle Loop,,51.51667,5.73333,H,CNL,NL,,06,,,,0,,20,Europe/Amsterdam,1994-01-08,"(5.73333, 51.51667)",2749990
2747058,Sneidershoek,Sneidershoek,,51.38833,5.32917,P,PPL,NL,,06,0770,,,0,,27,Europe/Amsterdam,2007-06-03,"(5.32917, 51.38833)",2744208
2747093,Smalle Wetering,Smalle Wetering,,51.75,5.7,H,CNL,NL,,06,,,,0,,8,Europe/Amsterdam,1994-01-08,"(5.7, 51.75)",2749990
2747097,Smalle Beek,Smalle Beek,,51.54361,4.37925,H,STM,NL,,06,,,,0,,0,Europe/Amsterdam,2011-04-19,"(4.37925, 51.54361)",2749990
2747112,Sluis Dertien,Sluis Dertien,"Sluis 13,Sluis Dertien",51.33333,5.75,P,PPL,NL,,06,0847,,,0,,28,Europe/Amsterdam,2012-01-17,"(5.75, 51.33333)",2744347
2747123,Slotjes,Slotjes,,51.63933,4.85593,P,PPLX,NL,,06,0826,,,0,,6,Europe/Amsterdam,2011-06-04,"(4.85593, 51.63933)",2745027
2747133,Slot,Slot,"'t Slot,Slot,’t Slot",51.404,5.83382,P,PPL,NL,,06,0762,,,0,,29,Europe/Amsterdam,2012-01-17,"(5.83382, 51.404)",2743978
2747146,Slobbegors,Slobbegors,,51.63571,4.42885,L,LCTY,NL,,06,1709,,,0,,-1,Europe/Amsterdam,2017-08-16,"(4.42885, 51.63571)",2743480
2747148,Slingerbos,Slingerbos,"Slingerbos,Slingerbosch",51.4256,5.13423,V,FRST,NL,,06,,,,0,,28,Europe/Amsterdam,2012-01-17,"(5.13423, 51.4256)",2749990
2747155,Slikkenburg,Slikkenburg,,51.52833,4.25,P,PPL,NL,,06,0748,,,0,,0,Europe/Amsterdam,2007-06-03,"(4.25, 51.52833)",2743713
2747165,Sliffert,Sliffert,,51.43583,5.42361,P,PPL,NL,,06,0772,,,0,,19,Europe/Amsterdam,2007-06-03,"(5.42361, 51.43583)",2744250
2747166,Slieven,Slieven,Sheven,51.40081,5.70263,P,PPLL,NL,,06,0847,,,0,,25,Europe/Amsterdam,2008-12-26,"(5.70263, 51.40081)",2744347
2747171,Slibbroek,Slibbroek,,51.49469,5.13632,P,PPL,NL,,06,0798,,,0,,13,Europe/Amsterdam,2009-01-13,"(5.13632, 51.49469)",2744672
2747178,Sleeuwijk,Sleeuwijk,Sleewijk,51.81583,4.95278,P,PPL,NL,,06,1959,,,5859,,0,Europe/Amsterdam,2021-08-30,"(4.95278, 51.81583)",2744033
2747190,Slagveld,Slagveld,,51.58878,4.6443,P,PPL,NL,,06,0777,,,0,,2,Europe/Amsterdam,2008-02-01,"(4.6443, 51.58878)",2743542
2747193,Slabroeksche Heide,Slabroeksche Heide,"Slabroek,Slabroeksche Heide",51.70296,5.60027,L,LCTY,NL,,06,1991,,,0,,19,Europe/Amsterdam,2022-09-30,"(5.60027, 51.70296)",2743934
2747194,Slabroek,Slabroek,,51.68333,5.61667,L,PRK,NL,,06,1991,,,0,,17,Europe/Amsterdam,2022-09-30,"(5.61667, 51.68333)",2743934
2747195,Slabroek,Slabroek,,51.69667,5.60139,P,PPL,NL,,06,1991,,,0,,19,Europe/Amsterdam,2022-09-30,"(5.60139, 51.69667)",2743934
2747210,Sint Willebrord,Sint Willebrord,"Heike,St. Willebrord,Willebrord",51.54833,4.58889,P,PPL,NL,,06,0840,,,8655,,9,Europe/Amsterdam,2017-10-17,"(4.58889, 51.54833)",2743563
2747226,Gemeente Sint-Oedenrode,Gemeente Sint-Oedenrode,"Gemeente Sint-Oedenrode,Sint-Oedenrode",51.5637,5.46537,A,ADM2H,NL,,06,0846,,,17935,,13,Europe/Amsterdam,2017-08-14,"(5.46537, 51.5637)",2747226
2747227,Sint-Oedenrode,Sint-Oedenrode,Sint-Oedenrode,51.5675,5.45972,P,PPL,NL,,06,1948,,,16931,,11,Europe/Amsterdam,2017-10-17,"(5.45972, 51.5675)",2743489
2747233,Gemeente Sint-Michielsgestel,Gemeente Sint-Michielsgestel,"Gemeente Sint-Michielsgestel,Sint-Michielsgestel,Sint-Michielsgestel Municipality",51.66076,5.37851,A,ADM2,NL,,06,0845,,,28673,,4,Europe/Amsterdam,2023-08-10,"(5.37851, 51.66076)",2743993
2747234,Sint-Michielsgestel,Sint-Michielsgestel,"Saint-Michel-Gestel,Sint-Mixilsxestel,synt mykhylyskhystl,Սինտ-Միխիլսխեստել,سينت ميخيليسخيستل",51.64167,5.35278,P,PPL,NL,,06,0845,,,2580,,7,Europe/Amsterdam,2017-10-17,"(5.35278, 51.64167)",2743993
2747236,Sint Martensberg,Sint Martensberg,,51.46667,5.3,T,HLL,NL,,06,0823,,,0,,22,Europe/Amsterdam,2012-04-14,"(5.3, 51.46667)",2744782
2747240,Sint Maartenspolder,Sint Maartenspolder,,51.61733,4.56544,T,PLDR,NL,,06,,,,0,,0,Europe/Amsterdam,2011-04-19,"(4.56544, 51.61733)",2749990
2747265,Sint Janshoeve,Sint Janshoeve,,51.546,5.29239,S,FRM,NL,,06,0823,,,0,,9,Europe/Amsterdam,2011-06-04,"(5.29239, 51.546)",2744782
2747267,Sint Jansbeek,Sint Jansbeek,,51.61963,5.98108,H,STM,NL,,06,,,,0,,15,Europe/Amsterdam,2011-04-19,"(5.98108, 51.61963)",2749990
2747275,Sint Hubertsche Heide,Sint Hubertsche Heide,"Sint Hubertsche Heide,Sint Hubertsheide",51.66667,5.8,L,LCTY,NL,,06,1982,,,0,,19,Europe/Amsterdam,2022-09-30,"(5.8, 51.66667)",2743796
2747276,Sint Hubert,Sint Hubert,Sint Hubert,51.67833,5.80833,P,PPL,NL,,06,1982,,,995,,13,Europe/Amsterdam,2022-09-30,"(5.80833, 51.67833)",2743796
2747277,Sint Helenahoeve,Sint Helenahoeve,,51.56433,5.88492,S,FRM,NL,,06,1982,,,0,,27,Europe/Amsterdam,2022-09-30,"(5.88492, 51.56433)",2743796
2747285,Sint Antoniegorzen,Sint Antoniegorzen,,51.68203,4.40677,L,LCTY,NL,,06,1709,,,0,,-2,Europe/Amsterdam,2017-08-16,"(4.40677, 51.68203)",2743480
2747287,Sint Anthonius-Abt,Sint Anthonius-Abt,Sint Antonius Abt,51.29734,5.44079,S,ML,NL,,06,0858,,,0,,31,Europe/Amsterdam,2011-06-04,"(5.44079, 51.29734)",2744008
2747288,Sint Anthonisloop,Sint Anthonisloop,,51.69293,5.81451,H,CNL,NL,,06,,,,0,,9,Europe/Amsterdam,2011-04-19,"(5.81451, 51.69293)",2749990
2747289,Boswachterij Sint Anthonis,Boswachterij Sint Anthonis,,51.61667,5.83333,L,PRK,NL,,06,1982,,,0,,22,Europe/Amsterdam,2022-09-30,"(5.83333, 51.61667)",2743796
2747290,Sint Anthonis,Sint Anthonis,"Antonis,Sint Anthonis,Sint Antonis,Sintunnis",51.62667,5.88194,P,PPL,NL,,06,1982,,,3340,,20,Europe/Amsterdam,2022-09-30,"(5.88194, 51.62667)",2743796
2747299,Sint Annabos,Sint Annabos,"Sint Annabos,Sint Annabosch",51.54572,4.83227,L,LCTY,NL,,06,1723,,,0,,14,Europe/Amsterdam,2017-08-16,"(4.83227, 51.54572)",2744099
2747303,Sint Agatha,Sint Agatha,,51.7125,5.9125,P,PPL,NL,,06,1982,,,310,,11,Europe/Amsterdam,2022-09-30,"(5.9125, 51.7125)",2743796
2747308,Singelheide,Singelheide,,51.42054,4.86851,L,LCTY,NL,,06,0744,,,0,,20,Europe/Amsterdam,2017-08-16,"(4.86851, 51.42054)",2744297
2747323,Silserhoeve,Silserhoeve,,51.60233,5.8343,S,FRM,NL,,06,1982,,,0,,21,Europe/Amsterdam,2022-09-30,"(5.8343, 51.60233)",2743796
2747346,Siberië,Siberie,,51.56562,5.87908,L,LCTY,NL,,06,1982,,,0,,24,Europe/Amsterdam,2022-09-30,"(5.87908, 51.56562)",2743796
2747350,Gemeente 's-Hertogenbosch,Gemeente 's-Hertogenbosch,"'s-Hertogenbosch,Bois le Duc,Den Bosch",51.68267,5.30056,A,ADM2,NL,,06,0796,,,153434,,4,Europe/Amsterdam,2019-01-19,"(5.30056, 51.68267)",2745503
2747351,'s-Hertogenbosch,'s-Hertogenbosch,"'s Bosch,'s-Hertogenbosch,Bois-le-Duc,Bolduque,Boscoducale,De Bosk,Den Bosch,Hertogenbosch,Herzogenbusch,Khertogenbos,Oeteldonk,Silva Ducis,Хертогенбос,’s-Hertogenbosch",51.69917,5.30417,P,PPLA,NL,,06,0796,,,134520,,7,Europe/Amsterdam,2020-01-13,"(5.30417, 51.69917)",2745503
2747353,’s-Heerenvijvers,'s-Heerenvijvers,,51.48667,5.30999,S,EST,NL,,06,0823,,,0,,24,Europe/Amsterdam,2011-06-04,"(5.30999, 51.48667)",2744782
2747354,’s-Heerenven,'s-Heerenven,,51.41429,5.62577,H,MRSH,NL,,06,,,,0,,22,Europe/Amsterdam,2011-04-19,"(5.62577, 51.41429)",2749990
2747368,Vaart,'s-Gravenmoerse Vaart,,51.645,4.96528,P,PPL,NL,,06,0766,,,0,,2,Europe/Amsterdam,2007-06-06,"(4.96528, 51.645)",2747368
2747369,Polder van ’s-Gravenmoer,Polder van 's-Gravenmoer,,51.66546,4.94345,T,PLDR,NL,,06,,,,0,,-1,Europe/Amsterdam,2011-04-19,"(4.94345, 51.66546)",2749990
2747371,'s Gravenmoer,'s Gravenmoer,'s Gravemoer,51.65594,4.94076,P,PPL,NL,,06,0766,,,2315,,3,Europe/Amsterdam,2017-10-17,"(4.94076, 51.65594)",2747368
2747383,Seters,Seters,,51.61,4.86806,P,PPL,NL,,06,0826,,,0,,6,Europe/Amsterdam,2007-06-03,"(4.86806, 51.61)",2745027
2747389,Sengelsbroek,Sengelsbroek,,51.28917,5.3375,P,PPL,NL,,06,1724,,,0,,34,Europe/Amsterdam,2007-06-03,"(5.3375, 51.28917)",2743549
2747390,Sengelbroeksche Heide,Sengelbroeksche Heide,,51.26988,5.33333,L,LCTY,NL,,06,1724,,,0,,37,Europe/Amsterdam,2017-08-16,"(5.33333, 51.26988)",2743549
2747401,Selissen,Selissen,,51.605,5.32361,P,PPL,NL,,06,0757,,,0,,8,Europe/Amsterdam,2007-06-03,"(5.32361, 51.605)",2745174
2747402,Seldensate,Seldensate,"Seldensale,Seldensate",51.66251,5.41472,S,RUIN,NL,,06,0845,,,0,,5,Europe/Amsterdam,2012-01-17,"(5.41472, 51.66251)",2743993
2747424,Schutsboom,Schutsboom,,51.50083,5.76944,P,PPL,NL,,06,1652,,,0,,24,Europe/Amsterdam,2007-06-03,"(5.76944, 51.50083)",2744100
2747425,Schutsboom,Schutsboom,,51.46152,5.6226,P,PPL,NL,,06,1771,,,3490,,18,Europe/Amsterdam,2017-03-24,"(5.6226, 51.46152)",2743956
2747447,Schuddebeurs,Schuddebeurs,"Schuddebeurs,Schuddebeurspolder",51.70851,4.66779,T,PLDR,NL,,06,,,,0,,-2,Europe/Amsterdam,2012-01-17,"(4.66779, 51.70851)",2749990
2747448,Schrobbenloop,Schrobbenloop,,51.45074,4.64366,H,STM,NL,,06,,,,0,,9,Europe/Amsterdam,2011-04-19,"(4.64366, 51.45074)",2749990
2747455,Schransbeemden,Schransbeemden,,51.4138,4.78054,L,LCTY,NL,,06,0744,,,0,,13,Europe/Amsterdam,2017-08-16,"(4.78054, 51.4138)",2744297
2747460,Schouwloop,Schouwloop,,51.41259,4.90063,H,STM,NL,,06,,,,0,,21,Europe/Amsterdam,2011-04-19,"(4.90063, 51.41259)",2749990
2747467,Schouwbroeken,Schouwbroeken,,51.47674,4.68235,L,LCTY,NL,,06,0879,,,0,,8,Europe/Amsterdam,2017-08-16,"(4.68235, 51.47674)",2743515
2747469,Schouw,Schouw,,51.48667,5.73333,P,PPL,NL,,06,1652,,,0,,20,Europe/Amsterdam,2007-06-03,"(5.73333, 51.48667)",2744100
2747473,Schotsheuvel,Schotsheuvel,,51.72583,5.45,P,PPL,NL,,06,0796,,,0,,6,Europe/Amsterdam,2017-04-14,"(5.45, 51.72583)",2745503
2747484,Schooteind,Schooteind,,51.45,5.75,P,PPLX,NL,,06,0762,,,0,,28,Europe/Amsterdam,2009-01-05,"(5.75, 51.45)",2743978
2747485,Schoot,Schoot,,51.40083,5.37917,P,PPL,NL,,06,0861,,,0,,20,Europe/Amsterdam,2007-06-03,"(5.37917, 51.40083)",2743844
2747487,Schoorstraat,Schoorstraat,,51.62667,5.11806,P,PPL,NL,,06,0855,,,0,,11,Europe/Amsterdam,2007-06-03,"(5.11806, 51.62667)",2744349
2747493,Schoordijk,Schoordijk,,51.2775,5.59306,P,PPL,NL,,06,1706,,,0,,31,Europe/Amsterdam,2007-06-03,"(5.59306, 51.2775)",2743972
2747520,Schoonberg,Schoonberg,Schoonberg,51.61001,5.3334,T,HLL,NL,,06,0845,,,0,,9,Europe/Amsterdam,2018-12-04,"(5.3334, 51.61001)",2743993
2747533,Schoelieberg,Schoelieberg,,51.44,4.38194,P,PPL,NL,,06,0873,,,0,,14,Europe/Amsterdam,2007-06-03,"(4.38194, 51.44)",2743530
2747536,Schipperskil,Schipperskil,,51.38877,4.29756,H,STM,NL,,06,,,,0,,1,Europe/Amsterdam,2011-04-19,"(4.29756, 51.38877)",2749990
2747582,Schijndelsche Heide,Schijndelsche Heide,,51.59807,5.46423,L,LCTY,NL,,06,1948,,,0,,9,Europe/Amsterdam,2017-08-16,"(5.46423, 51.59807)",2743489
2747583,Gemeente Schijndel,Gemeente Schijndel,"Gemeente Schijndel,Schijndel",51.62237,5.43667,A,ADM2H,NL,,06,0844,,,23360,,9,Europe/Amsterdam,2017-08-14,"(5.43667, 51.62237)",2747583
2747584,Schijndel,Schijndel,Schijndel,51.6225,5.43194,P,PPL,NL,,06,1948,,,23239,,10,Europe/Amsterdam,2017-10-17,"(5.43194, 51.6225)",2743489
2747585,Schijf,Schijf,,51.49917,4.56111,P,PPL,NL,,06,0840,,,770,,15,Europe/Amsterdam,2017-10-17,"(4.56111, 51.49917)",2743563
2747611,Scherpenering,Scherpenering,,51.4425,5.35833,P,PPL,NL,,06,0770,,,0,,20,Europe/Amsterdam,2007-06-03,"(5.35833, 51.4425)",2744208
2747613,Scherpenberg,Scherpenberg,,51.51556,4.58103,L,LCTY,NL,,06,0840,,,0,,14,Europe/Amsterdam,2017-08-16,"(4.58103, 51.51556)",2743563
2747633,Schelm,Schelm,,51.36083,5.86806,P,PPL,NL,,06,0762,,,0,,31,Europe/Amsterdam,2007-06-03,"(5.86806, 51.36083)",2743978
2747647,Scheireevliet,Scheireevliet,,51.66562,4.49694,H,CNL,NL,,06,,,,0,,-1,Europe/Amsterdam,2011-04-19,"(4.49694, 51.66562)",2749990
2747656,Scheepstal,Scheepstal,,51.50083,5.67917,P,PPL,NL,,06,1659,,,85,,16,Europe/Amsterdam,2017-03-24,"(5.67917, 51.50083)",2745349
2747688,Schans,Schans,,51.80333,4.91806,P,PPL,NL,,06,1959,,,0,,0,Europe/Amsterdam,2019-01-20,"(4.91806, 51.80333)",2744033
2747689,Schans,Schans,,51.60667,4.51111,P,PPL,NL,,06,1655,,,0,,-1,Europe/Amsterdam,2007-06-03,"(4.51111, 51.60667)",2746659
2747690,Schans,Schans,,51.35667,5.875,P,PPL,NL,,06,0762,,,0,,32,Europe/Amsterdam,2007-06-03,"(5.875, 51.35667)",2743978
2747695,Schaluinen,Schaluinen,Schalluinen,51.42583,4.93472,P,PPL,NL,,06,0744,,,0,,28,Europe/Amsterdam,2007-06-03,"(4.93472, 51.42583)",2744297
2747696,Schaluinen,Schaluinen,"Landgoed Schaluinen,Schaluinen",51.41667,4.95,V,FRST,NL,,06,,,,0,,27,Europe/Amsterdam,2012-01-17,"(4.95, 51.41667)",2749990
2747706,Schalieven,Schalieven,,51.48989,4.89023,L,LCTY,NL,,06,1723,,,0,,22,Europe/Amsterdam,2017-08-16,"(4.89023, 51.48989)",2744099
2747710,Schaijkse Hoek,Schaijkse Hoek,"Schaaikse Hoek,Schaijksche Hoek,Schaijkse Hoek",51.73333,5.63333,P,PPL,NL,,06,1991,,,0,,19,Europe/Amsterdam,2022-09-30,"(5.63333, 51.73333)",2743934
2747711,Schaijkse Heide,Schaijkse Heide,"Schaijksche Heide,Schaijkse Heide",51.72163,5.62742,V,HTH,NL,,06,,,,0,,26,Europe/Amsterdam,2012-01-17,"(5.62742, 51.72163)",2749990
2747713,Schaijk,Schaijk,"Schaaik,Schadewijk,Schaik,Schayk",51.74583,5.63194,P,PPL,NL,,06,1991,,,5970,,11,Europe/Amsterdam,2023-11-27,"(5.63194, 51.74583)",2743934
2747721,Schaft,Schaft,,51.29833,5.45556,P,PPL,NL,,06,0858,,,155,,28,Europe/Amsterdam,2017-03-24,"(5.45556, 51.29833)",2744008
2747722,Schafferden,Schafferden,,51.59,5.99167,P,PPL,NL,,06,1982,,,0,,14,Europe/Amsterdam,2022-09-30,"(5.99167, 51.59)",2743796
2747728,Schadron,Schadron,Schadrom,51.63583,5.65556,P,PPL,NL,,06,1991,,,0,,18,Europe/Amsterdam,2022-09-30,"(5.65556, 51.63583)",2743934
2747731,Schadewijk,Schadewijk,,51.3575,5.34028,P,PPL,NL,,06,0770,,,0,,27,Europe/Amsterdam,2007-06-03,"(5.34028, 51.3575)",2744208
2747738,Schaapsven,Schaapsven,,51.55972,5.15981,H,PND,NL,,06,,,,0,,14,Europe/Amsterdam,2011-04-19,"(5.15981, 51.55972)",2749990
2747753,Het Sas,Sas,"'t Sas,Het Sas",51.46917,4.98472,P,PPL,NL,,06,1723,,,0,,22,Europe/Amsterdam,2007-06-03,"(4.98472, 51.46917)",2744099
2747763,Sander,Sander,Sanderbanken,51.58744,4.63782,P,PPL,NL,,06,0777,,,0,,4,Europe/Amsterdam,2008-02-01,"(4.63782, 51.58744)",2743542
2747773,Sambeek,Sambeek,Sambeek,51.63583,5.96667,P,PPL,NL,,06,1982,,,0,,15,Europe/Amsterdam,2022-09-30,"(5.96667, 51.63583)",2743796
2747781,Sabina Henricapolder,Sabina Henricapolder,,51.65857,4.39543,T,PLDR,NL,,06,,,,0,,-2,Europe/Amsterdam,2011-04-19,"(4.39543, 51.65857)",2749990
2747782,Fort Sabina,Fort Sabina,"Fort De Ruijter,Fort Sabina Henrica,Sabina Henrica Fort,Sabina Henrican linnoitus",51.67695,4.39565,S,FT,NL,,06,1709,,,0,,1,Europe/Amsterdam,2019-08-02,"(4.39565, 51.67695)",2743480
2747789,Ruwaard,Ruwaard,,51.74917,5.5083,P,PPLX,NL,,06,0828,,,0,,9,Europe/Amsterdam,2011-06-04,"(5.5083, 51.74917)",2746510
2747804,Running,Running,,51.50741,4.35701,H,STM,NL,,06,,,,0,,6,Europe/Amsterdam,2011-04-19,"(4.35701, 51.50741)",2749990
2747806,Run,Run,"De Run Rivier,Run",51.39973,5.41902,H,STM,NL,,06,,,,0,,18,Europe/Amsterdam,2012-01-17,"(5.41902, 51.39973)",2749990
2747807,Run,Run,,51.73333,5.46667,P,PPL,NL,,06,0828,,,0,,4,Europe/Amsterdam,2017-04-13,"(5.46667, 51.73333)",2746510
2747813,Rullen,Rullen,,51.49583,5.55556,P,PPL,NL,,06,0820,,,0,,14,Europe/Amsterdam,2007-06-03,"(5.55556, 51.49583)",2746854
2747814,Rul,Rul,,51.395,5.57778,P,PPL,NL,,06,1658,,,0,,23,Europe/Amsterdam,2007-06-03,"(5.57778, 51.395)",2743838
2747815,Rukven,Rukven,"Rucphen,Rukfen",51.67583,5.47639,P,PPL,NL,,06,1721,,,0,,8,Europe/Amsterdam,2007-06-03,"(5.47639, 51.67583)",2743850
2747816,Ruitersbosch,Ruitersbosch,,51.56932,4.76901,P,PPLX,NL,,06,0758,,,0,,4,Europe/Amsterdam,2011-06-04,"(4.76901, 51.56932)",2744093
2747838,Ruimel,Ruimel,,51.65083,5.34444,P,PPL,NL,,06,0845,,,0,,4,Europe/Amsterdam,2007-06-03,"(5.34444, 51.65083)",2743993
2747841,Ruigt,Ruigt,"Puigt,Reugt,Ruigt",51.75362,4.83037,H,STMD,NL,,06,,,,0,,1,Europe/Amsterdam,2012-01-17,"(4.83037, 51.75362)",2749990
2747848,Polder de Ruigenhil,Polder de Ruigenhil,,51.67007,4.45153,T,PLDR,NL,,06,,,,0,,-4,Europe/Amsterdam,2011-04-19,"(4.45153, 51.67007)",2749990
2747853,Rugdijk,Rugdijk,,51.59083,5.09722,P,PPL,NL,,06,0855,,,0,,12,Europe/Amsterdam,2007-06-03,"(5.09722, 51.59083)",2744349
2747854,Rucphensche Vaart,Rucphensche Vaart,,51.5316,4.49869,H,CNL,NL,,06,,,,0,,6,Europe/Amsterdam,2011-04-19,"(4.49869, 51.5316)",2749990
2747855,Rucphensche Heide,Rucphensche Heide,,51.5136,4.54475,V,HTH,NL,,06,,,,0,,13,Europe/Amsterdam,2011-04-19,"(4.54475, 51.5136)",2749990
2747856,Rucphensche en Langendijksche Heide,Rucphensche en Langendijksche Heide,"Rucphensche en Langendijksche Heide,Rucphense en Langendijkse Heide",51.51667,4.53333,V,HTH,NL,,06,,,,0,,21,Europe/Amsterdam,2012-01-17,"(4.53333, 51.51667)",2749990
2747857,Gemeente Rucphen,Gemeente Rucphen,"Gemeente Rucphen,Rucphen,Rucphen Municipality",51.52357,4.56586,A,ADM2,NL,,06,0840,,,23080,,11,Europe/Amsterdam,2023-08-10,"(4.56586, 51.52357)",2743563
2747858,Rucphen,Rucphen,Rukfen,51.53167,4.55833,P,PPL,NL,,06,0840,,,3660,,12,Europe/Amsterdam,2017-10-17,"(4.55833, 51.53167)",2743563
2747859,Rubeerepolder,Rubeerepolder,,51.5682,4.25664,T,PLDR,NL,,06,,,,0,,-2,Europe/Amsterdam,2011-04-19,"(4.25664, 51.5682)",2749990
2747861,Rozenven,Rozenven,,51.49784,4.49796,H,PND,NL,,06,,,,0,,9,Europe/Amsterdam,2011-04-19,"(4.49796, 51.49784)",2749990
2747872,Rovertsche Leij,Rovertsche Leij,,51.50911,5.05972,H,STM,NL,,06,,,,0,,13,Europe/Amsterdam,2011-04-19,"(5.05972, 51.50911)",2749990
2747873,Rovertsche Heide,Rovertsche Heide,"Rovertsche Heide,Rovertse Heide",51.47838,5.10008,V,HTH,NL,,06,,,,0,,19,Europe/Amsterdam,2012-01-17,"(5.10008, 51.47838)",2749990
2747874,Rovertsche Bunt,Rovertsche Bunt,,51.48188,5.06446,L,LCTY,NL,,06,0798,,,0,,19,Europe/Amsterdam,2017-08-16,"(5.06446, 51.48188)",2744672
2747875,Rovert,Rovert,,51.4725,5.08194,P,PPL,NL,,06,0798,,,0,,29,Europe/Amsterdam,2007-06-03,"(5.08194, 51.4725)",2744672
2747910,Rosmalen,Rosmalen,"Rosmalen,Rosmalena,Rosmalenas,luo si ma lun,rosumaren,rwzmaln,Росмален,روزمالن,ロスマーレン,罗斯马伦",51.71667,5.36528,P,PPL,NL,,06,0796,,,0,,6,Europe/Amsterdam,2017-10-17,"(5.36528, 51.71667)",2745503
2747912,Rosephoeve,Rosephoeve,"Rosephoeve,Rozephoeve",51.5589,5.24284,S,FRM,NL,,06,0824,,,0,,8,Europe/Amsterdam,2012-01-17,"(5.24284, 51.5589)",2743960
2747921,Fort de Roovere,Fort de Roovere,"Fort De Roovere,Fort de Roovere,Fort de Ruver,Musa koerpuesue,Musa körpüsü,hsn dy rwfyr,mojes vantena,Ֆորտ դե Ռուվեր,حصن دى روفير,మోజెస్ వంతెన",51.5289,4.29955,S,FT,NL,,06,0748,,,0,,6,Europe/Amsterdam,2012-05-05,"(4.29955, 51.5289)",2743713
2747927,Roosendaalsche Vliet,Roosendaalsche Vliet,"Roosendaalsche Vliet,Roozendaalsche Vliet,Rozendaalsche Vliet",51.60016,4.40743,H,STMX,NL,,06,,,,0,,0,Europe/Amsterdam,2012-01-17,"(4.40743, 51.60016)",2749990
2747928,Roosendaalsche-en Steenbergsche Vliet,Roosendaalsche-en Steenbergsche Vliet,"Roosendaalsche-Vliet,Roosendaalsche-en Steenbergsche Vliet,Roosendaalse en Steenbergse Vliet,Rozendaalsche en Steenbergsche Vliet,Steenbergsch Vliet,Steenbergsche Vliet",51.62997,4.2538,H,STM,NL,,06,,,,0,,0,Europe/Amsterdam,2012-01-17,"(4.2538, 51.62997)",2749990
2747929,Roosendaal,Roosendaal,"Gemeente Roosendaal,Gemeente Roosendaal en Nispen,Roosendaal,Roosendaal Municipality,Roosendaal en Nispen,Rozendaal",51.51149,4.4226,A,ADM2,NL,,06,1674,,,77200,,6,Europe/Amsterdam,2023-08-10,"(4.4226, 51.51149)",2743612
2747930,Roosendaal,Roosendaal,"Roosendaal,Rosendael,Rozendael,Rozendal,Rozendal',ZYO,losendal,luo sen da er,ro sen dal,rozendaru,rwsyndal,Розендал,Розендаль,روزن‌دال,روسيندال,โรเซนดาล,ローゼンダール,罗森达尔,로센달",51.53083,4.46528,P,PPL,NL,,06,1674,,,77725,,4,Europe/Amsterdam,2017-10-17,"(4.46528, 51.53083)",2743612
2747933,Roosbergsche Tiend,Roosbergsche Tiend,,51.55616,4.83239,L,LCTY,NL,,06,0758,,,0,,7,Europe/Amsterdam,2017-08-16,"(4.83239, 51.55616)",2744093
2747934,Roosberg,Roosberg,,51.5625,4.82361,P,PPL,NL,,06,0758,,,0,,7,Europe/Amsterdam,2007-06-03,"(4.82361, 51.5625)",2744093
2747939,Roonsestraat,Roonsestraat,,51.6,5.23333,P,PPL,NL,,06,0824,,,0,,8,Europe/Amsterdam,2021-07-06,"(5.23333, 51.6)",2743960
2747944,Rooische Heide,Rooische Heide,,51.59339,5.44098,L,LCTY,NL,,06,1948,,,0,,8,Europe/Amsterdam,2017-08-16,"(5.44098, 51.59339)",2743489
2747946,Roodloop,Roodloop,,51.5,5.13333,H,STM,NL,,06,,,,0,,15,Europe/Amsterdam,1994-01-08,"(5.13333, 51.5)",2749990
2747952,Roodevaart,Roodevaart,,51.68772,4.61563,P,PPL,NL,,06,1709,,,0,,1,Europe/Amsterdam,2009-10-09,"(4.61563, 51.68772)",2743480
2747953,Roode Vaart,Roode Vaart,"Haven van Zevenbergen,Roode Vaart",51.62779,4.58486,H,CNL,NL,,06,,,,0,,1,Europe/Amsterdam,2012-01-17,"(4.58486, 51.62779)",2749990
2747955,Roode-Schouw,Roode-Schouw,,51.52443,4.28037,L,LCTY,NL,,06,0748,,,0,,8,Europe/Amsterdam,2017-08-16,"(4.28037, 51.52443)",2743713
2747962,Roode Beek,Roode Beek,"De Roode Beek,Roode Beek",51.7,5.78333,H,STM,NL,,06,,,,0,,9,Europe/Amsterdam,2012-01-17,"(5.78333, 51.7)",2749990
2747965,Rondveld,Rondveld,,51.62083,5.89722,P,PPL,NL,,06,1982,,,0,,18,Europe/Amsterdam,2022-09-30,"(5.89722, 51.62083)",2743796
2747967,Rondgors,Rondgors,,51.52517,4.67285,L,LCTY,NL,,06,0879,,,0,,5,Europe/Amsterdam,2017-08-16,"(4.67285, 51.52517)",2743515
2747970,Rondbosch,Rondbosch,,51.5,5.1,V,FRST,NL,,06,,,,0,,15,Europe/Amsterdam,1994-01-08,"(5.1, 51.5)",2749990
2747980,Rolaf,Rolaf,,51.57248,4.24587,P,PPL,NL,,06,0851,,,0,,-1,Europe/Amsterdam,2009-01-13,"(4.24587, 51.57248)",2743534
2747997,Roestenburg,Roestenburg,,51.64583,5.5384,P,PPL,NL,,06,1721,,,0,,9,Europe/Amsterdam,2009-10-09,"(5.5384, 51.64583)",2743850
2747998,Roestelberg,Roestelberg,,51.65,5.08333,T,HLL,NL,,06,0809,,,0,,15,Europe/Amsterdam,2012-04-14,"(5.08333, 51.65)",2746901
2748028,Rode Brug,Rode Brug,,51.64793,4.93008,S,BDG,NL,,06,0766,,,0,,3,Europe/Amsterdam,2021-07-06,"(4.93008, 51.64793)",2747368
2748037,Rixtel,Rixtel,Rikstel,51.5097,5.64766,P,PPL,NL,,06,1659,,,0,,17,Europe/Amsterdam,2009-01-02,"(5.64766, 51.5097)",2745349
2748046,Rith,Rith,Rit,51.56583,4.725,P,PPL,NL,,06,0758,,,0,,3,Europe/Amsterdam,2007-06-03,"(4.725, 51.56583)",2744093
2748047,Rissebeek,Rissebeek,,51.54974,4.4473,H,STM,NL,,06,,,,0,,5,Europe/Amsterdam,2011-04-19,"(4.4473, 51.54974)",2749990
2748049,De Rips,De Rips,,51.55,5.80972,P,PPL,NL,,06,1652,,,875,,29,Europe/Amsterdam,2017-10-17,"(5.80972, 51.55)",2744100
2748054,Rinkveld,Rinkveld,,51.4,5.78611,P,PPL,NL,,06,0743,,,0,,26,Europe/Amsterdam,2007-06-03,"(5.78611, 51.4)",2744211
2748061,Ringselven,Ringselven,,51.23257,5.59887,H,LKS,NL,,06,,,,0,,29,Europe/Amsterdam,2011-04-19,"(5.59887, 51.23257)",2749990
2748072,Rijtsche Loop,Rijtsche Loop,,51.73333,5.48333,H,STM,NL,,06,,,,0,,8,Europe/Amsterdam,1994-01-08,"(5.48333, 51.73333)",2749990
2748073,Rijtsche Heide,Rijtsche Heide,"Rijtsche Heide,Rijtse Heide",51.32232,5.14726,V,HTH,NL,,06,,,,0,,28,Europe/Amsterdam,2012-01-17,"(5.14726, 51.32232)",2749990
2748074,Rijt,Rijt,,51.29583,5.30972,P,PPL,NL,,06,1724,,,170,,36,Europe/Amsterdam,2017-03-24,"(5.30972, 51.29583)",2743549
2748078,Rijswijk,Rijswijk,Rijswijk (NB),51.7975,5.025,P,PPL,NL,,06,1959,,,1862,,1,Europe/Amsterdam,2021-08-30,"(5.025, 51.7975)",2744033
2748091,Rijsbergen,Rijsbergen,,51.5175,4.69722,P,PPL,NL,,06,0879,,,4140,,9,Europe/Amsterdam,2017-10-17,"(4.69722, 51.5175)",2743515
2748100,Rijpelberg,Rijpelberg,,51.48333,5.71389,P,PPL,NL,,06,0794,,,0,,20,Europe/Amsterdam,2007-06-03,"(5.71389, 51.48333)",2746695
2748125,Rijkevoort,Rijkevoort,,51.65667,5.88611,P,PPL,NL,,06,1982,,,0,,15,Europe/Amsterdam,2022-09-30,"(5.88611, 51.65667)",2743796
2748130,Rijen,Rijen,Reijen,51.59083,4.91944,P,PPL,NL,,06,0784,,,16230,,11,Europe/Amsterdam,2017-10-17,"(4.91944, 51.59083)",2744882
2748133,Rietven,Rietven,,51.62167,5.7125,P,PPL,NL,,06,0755,,,0,,21,Europe/Amsterdam,2007-06-03,"(5.7125, 51.62167)",2744073
2748134,Rietven,Rietven,,51.42833,5.29028,P,PPL,NL,,06,0770,,,0,,22,Europe/Amsterdam,2007-06-03,"(5.29028, 51.42833)",2744208
2748148,Rietkreek,Rietkreek,,51.5897,4.22347,H,STM,NL,,06,,,,0,,0,Europe/Amsterdam,2011-04-19,"(4.22347, 51.5897)",2749990
2748150,Riethoven,Riethoven,Rijthoven,51.35417,5.3875,P,PPL,NL,,06,1724,,,2515,,30,Europe/Amsterdam,2024-08-16,"(5.3875, 51.35417)",2743549
2748153,Rietgoor,Rietgoor,,51.50731,4.43931,P,PPL,NL,,06,1674,,,0,,8,Europe/Amsterdam,2011-06-04,"(4.43931, 51.50731)",2743612
2748155,Rietdijk,Rietdijk,,51.7812,5.03526,P,PPL,NL,,06,1959,,,0,,0,Europe/Amsterdam,2019-01-20,"(5.03526, 51.7812)",2744033
2748162,Rielsche Heide,Rielsche Heide,,51.53125,4.98394,L,LCTY,NL,,06,0785,,,0,,14,Europe/Amsterdam,2017-08-16,"(4.98394, 51.53125)",2744083
2748164,Riel,Riel,,51.52583,5.02361,P,PPL,NL,,06,0785,,,0,,16,Europe/Amsterdam,2017-10-17,"(5.02361, 51.52583)",2744083
2748165,Riel,Riel,,51.42333,5.52222,P,PPL,NL,,06,0772,,,115,,22,Europe/Amsterdam,2017-03-24,"(5.52222, 51.42333)",2744250
2748175,Ribsche Polder,Ribsche Polder,,51.70576,4.7725,T,PLDR,NL,,06,,,,0,,-2,Europe/Amsterdam,2011-04-19,"(4.7725, 51.70576)",2749990
2748210,Reutsche Loop,Reutsche Loop,,51.4441,4.84268,H,STM,NL,,06,,,,0,,17,Europe/Amsterdam,2011-04-19,"(4.84268, 51.4441)",2749990
2748212,Reuth,Reuth,,51.44417,4.89861,P,PPL,NL,,06,0744,,,0,,24,Europe/Amsterdam,2007-06-03,"(4.89861, 51.44417)",2744297
2748214,Reuselsche Heide,Reuselsche Heide,,51.36854,5.12794,L,LCTY,NL,,06,1667,,,0,,30,Europe/Amsterdam,2017-08-16,"(5.12794, 51.36854)",2744136
2748216,Reusel,Reusel,"De Nemer,Reusel,Reuzel",51.56787,5.19462,H,STM,NL,,06,,,,0,,12,Europe/Amsterdam,2012-01-17,"(5.19462, 51.56787)",2749990
2748217,Reusel,Reusel,Reuzel,51.3625,5.16528,P,PPL,NL,,06,1667,,,7055,,33,Europe/Amsterdam,2017-10-17,"(5.16528, 51.3625)",2744136
2748221,Rethsche Heide,Rethsche Heide,"Rethsche Heide,Rethse Heide",51.42144,4.95385,V,HTH,NL,,06,,,,0,,26,Europe/Amsterdam,2012-01-17,"(4.95385, 51.42144)",2749990
2748222,Reth,Reth,,51.43333,4.94722,P,PPL,NL,,06,0744,,,0,,26,Europe/Amsterdam,2007-06-03,"(4.94722, 51.43333)",2744297
2748225,Resselbraken,Resselbraken,,51.46667,5.13333,L,LCTY,NL,,06,0798,,,0,,18,Europe/Amsterdam,2017-08-16,"(5.13333, 51.46667)",2744672
2748237,Renheide,Renheide,,51.32586,5.56364,L,PRK,NL,,06,1658,,,0,,23,Europe/Amsterdam,2017-08-16,"(5.56364, 51.32586)",2743838
2748243,Ren,Ren,,51.53583,5.70417,P,PPL,NL,,06,1652,,,0,,16,Europe/Amsterdam,2007-06-03,"(5.70417, 51.53583)",2744100
2748256,Reijsehoeve,Reijsehoeve,,51.56667,5.73333,S,FRM,NL,,06,1652,,,0,,21,Europe/Amsterdam,2011-06-04,"(5.73333, 51.56667)",2744100
2748274,Refelingsche Heide,Refelingsche Heide,,51.46667,5.55,V,HTH,NL,,06,,,,0,,18,Europe/Amsterdam,1994-01-08,"(5.55, 51.46667)",2749990
2748275,Refeling,Refeling,,51.46469,5.55007,P,PPL,NL,,06,0820,,,0,,19,Europe/Amsterdam,2011-06-04,"(5.55007, 51.46469)",2746854
2748284,Reeksche Heide,Reeksche Heide,"Reeksche Heide,Reekse Heide",51.72546,5.68618,V,HTH,NL,,06,,,,0,,23,Europe/Amsterdam,2012-01-17,"(5.68618, 51.72546)",2749990
2748285,Reeksche Bergen,Reeksche Bergen,"Reeksche Bergen,Reekse Bergen",51.72869,5.71429,T,HLLS,NL,,06,,,,0,,19,Europe/Amsterdam,2012-01-17,"(5.71429, 51.72869)",2749990
2748286,Reek,Reek,,51.74583,5.68194,P,PPL,NL,,06,1991,,,1495,,12,Europe/Amsterdam,2022-09-30,"(5.68194, 51.74583)",2743934
2748288,Reeënbosschen,Reeenbosschen,,51.4741,5.05332,V,FRST,NL,,06,,,,0,,32,Europe/Amsterdam,2011-04-19,"(5.05332, 51.4741)",2749990
2748291,Reeberg,Reeberg,Reeberg,51.36554,4.36747,T,HLL,NL,,06,0873,,,0,,15,Europe/Amsterdam,2018-12-04,"(4.36747, 51.36554)",2743530
2748295,Rechtvaart,Rechtvaart,,51.66265,5.00895,P,PPLL,NL,,06,0809,,,0,,3,Europe/Amsterdam,2011-06-04,"(5.00895, 51.66265)",2746901
2748302,Rechte Heide,Rechte Heide,,51.50626,5.02888,V,HTH,NL,,06,,,,0,,16,Europe/Amsterdam,2011-04-19,"(5.02888, 51.50626)",2749990
2748308,Ravenstein,Ravenstein,"Ravestein,la fen si tai yin,拉芬斯泰因",51.79667,5.65,P,PPL,NL,,06,0828,,,1465,,12,Europe/Amsterdam,2017-10-17,"(5.65, 51.79667)",2746510
2748309,Ravensgat,Ravensgat,Ravensgast,51.4925,5.725,P,PPL,NL,,06,1652,,,0,,19,Europe/Amsterdam,2007-06-03,"(5.725, 51.4925)",2744100
2748315,Rauwe Heide,Rauwe Heide,,51.69576,5.53892,L,LCTY,NL,,06,1721,,,0,,8,Europe/Amsterdam,2017-08-16,"(5.53892, 51.69576)",2743850
2748343,Rakt,Rakt,Rakt,51.67583,5.58194,P,PPL,NL,,06,1991,,,0,,15,Europe/Amsterdam,2022-09-30,"(5.58194, 51.67583)",2743934
2748346,Rakens,Rakens,,51.5325,4.81806,P,PPL,NL,,06,1723,,,0,,7,Europe/Amsterdam,2007-06-03,"(4.81806, 51.5325)",2744099
2748349,Radiobos,Radiobos,,51.61476,5.92033,V,FRST,NL,,06,,,,0,,23,Europe/Amsterdam,2011-04-19,"(5.92033, 51.61476)",2749990
2748361,Raamsdonksveer,Raamsdonksveer,Raamsdonkveer,51.69667,4.87361,P,PPL,NL,,06,0779,,,6590,,2,Europe/Amsterdam,2017-10-17,"(4.87361, 51.69667)",2746827
2748363,Raamsdonk,Raamsdonk,,51.6875,4.90833,P,PPL,NL,,06,0779,,,1920,,1,Europe/Amsterdam,2017-10-17,"(4.90833, 51.6875)",2746827
2748364,Raamloop,Raamloop,,51.50202,4.69723,H,STM,NL,,06,,,,0,,5,Europe/Amsterdam,2011-04-19,"(4.69723, 51.50202)",2749990
2748365,Raamberg,Raamberg,,51.49833,4.66944,P,PPL,NL,,06,0879,,,0,,9,Europe/Amsterdam,2007-06-03,"(4.66944, 51.49833)",2743515
2748366,Raam,Raam,"Graafsche Raam,Raam",51.77089,5.73192,H,STM,NL,,06,,,,0,,6,Europe/Amsterdam,2012-01-17,"(5.73192, 51.77089)",2749990
2748367,Raam,Raam,,51.65967,5.63637,P,PPL,NL,,06,1991,,,2965,,21,Europe/Amsterdam,2022-09-30,"(5.63637, 51.65967)",2743934
2748368,Raam,Raam,,51.6175,5.22083,P,PPL,NL,,06,0824,,,0,,8,Europe/Amsterdam,2021-07-06,"(5.22083, 51.6175)",2743960
2748372,Raakeind,Raakeind,,51.54583,4.89722,P,PPL,NL,,06,0784,,,0,,11,Europe/Amsterdam,2007-06-03,"(4.89722, 51.54583)",2744882
2748377,Quirijnstok,Quirijnstok,,51.5843,5.0981,P,PPLX,NL,,06,0855,,,3970,,13,Europe/Amsterdam,2017-03-24,"(5.0981, 51.5843)",2744349
2748378,Quirijnstok,Quirijnstok,,51.5975,5.10278,P,PPL,NL,,06,0855,,,0,,11,Europe/Amsterdam,2007-06-03,"(5.10278, 51.5975)",2744349
2748393,De Putten,De Putten,Putten,51.43333,5.51667,P,PPL,NL,,06,0772,,,0,,20,Europe/Amsterdam,2009-01-11,"(5.51667, 51.43333)",2744250
2748397,Putte,Putte,Putten,51.36,4.39583,P,PPL,NL,,06,0873,,,3440,,12,Europe/Amsterdam,2017-10-17,"(4.39583, 51.36)",2743530
2748399,Putselaar,Putselaar,,51.68333,5.85972,P,PPL,NL,,06,1982,,,0,,11,Europe/Amsterdam,2022-09-30,"(5.85972, 51.68333)",2743796
2748431,Prins Mauritshoeve,Prins Mauritshoeve,,51.76841,4.82969,S,FRM,NL,,06,1959,,,0,,-1,Europe/Amsterdam,2019-01-20,"(4.82969, 51.76841)",2744033
2748432,Prins Karelpolder,Prins Karelpolder,,51.44102,4.30133,T,PLDR,NL,,06,,,,0,,0,Europe/Amsterdam,2011-04-19,"(4.30133, 51.44102)",2749990
2748434,Prins Hendrikpolder,Prins Hendrikpolder,"Mancia Zomerpolder,Prins Hendrikpolder",51.61429,4.50204,T,PLDR,NL,,06,,,,0,,0,Europe/Amsterdam,2012-01-17,"(4.50204, 51.61429)",2749990
2748437,Prinsesseplaat,Prinsesseplaat,,51.5034,4.23437,H,FLTT,NL,,06,,,,0,,-9999,Europe/Amsterdam,2011-01-10,"(4.23437, 51.5034)",2749990
2748446,Prinsenbos,Prinsenbos,"Prinsebosch,Prinsenbos",51.53448,4.88241,V,FRST,NL,,06,,,,0,,18,Europe/Amsterdam,2012-01-17,"(4.88241, 51.53448)",2749990
2748448,Prinsenbeek,Prinsenbeek,Op de Beek,51.59833,4.7125,P,PPL,NL,,06,0758,,,10720,,5,Europe/Amsterdam,2022-01-14,"(4.7125, 51.59833)",2744093
2748449,Prinsejacht,Prinsejacht,,51.46503,5.4557,P,PPLX,NL,,06,0772,,,0,,18,Europe/Amsterdam,2011-06-04,"(5.4557, 51.46503)",2744250
2748450,Prinsebosschen,Prinsebosschen,,51.55726,4.37998,L,LCTY,NL,,06,0851,,,0,,0,Europe/Amsterdam,2017-08-16,"(4.37998, 51.55726)",2743534
2748453,Prins Alexanderhoeve,Prins Alexanderhoeve,,51.76667,4.76667,S,FRM,NL,,06,1959,,,0,,1,Europe/Amsterdam,2019-01-20,"(4.76667, 51.76667)",2744033
2748454,Princepeel,Princepeel,"Peel,Principeel,Prinsenpeel",51.65,5.76667,P,PPLL,NL,,06,1982,,,0,,18,Europe/Amsterdam,2022-09-30,"(5.76667, 51.65)",2743796
2748457,Princenhage,Princenhage,Prinsenhage,51.57632,4.73906,P,PPLX,NL,,06,0758,,,8535,,7,Europe/Amsterdam,2022-01-14,"(4.73906, 51.57632)",2744093
2748458,Prikpolder,Prikpolder,,51.78098,4.89877,T,PLDR,NL,,06,,,,0,,-1,Europe/Amsterdam,2011-04-19,"(4.89877, 51.78098)",2749990
2748460,Polder Prik en Schanswaard,Polder Prik en Schanswaard,,51.76308,4.89427,T,PLDR,NL,,06,,,,0,,-1,Europe/Amsterdam,2011-04-19,"(4.89427, 51.76308)",2749990
2748472,Pottersbos,Pottersbos,,51.53136,4.33183,V,FRST,NL,,06,,,,0,,12,Europe/Amsterdam,2011-04-19,"(4.33183, 51.53136)",2749990
2748473,Pottenberg,Pottenberg,,51.40016,4.32093,L,PRK,NL,,06,0873,,,0,,17,Europe/Amsterdam,2017-08-16,"(4.32093, 51.40016)",2743530
2748475,Potmarkreek,Potmarkreek,,51.61589,4.34383,H,STM,NL,,06,,,,0,,-4,Europe/Amsterdam,2011-04-19,"(4.34383, 51.61589)",2749990
2748483,Postelsbos,Postelsbos,"Postelsbos,Postelsche Heide",51.3,5.28333,V,FRST,NL,,06,,,,0,,42,Europe/Amsterdam,2012-01-17,"(5.28333, 51.3)",2749990
2748484,Postel,Postel,,51.43426,4.82744,L,LCTY,NL,,06,0744,,,0,,17,Europe/Amsterdam,2017-08-16,"(4.82744, 51.43426)",2744297
2748495,Poppelsche Heide,Poppelsche Heide,,51.4653,5.00033,L,LCTY,NL,,06,1723,,,0,,22,Europe/Amsterdam,2017-08-16,"(5.00033, 51.4653)",2744099
2748502,Poolsheining,Poolsheining,,51.43258,4.87976,H,STM,NL,,06,,,,0,,21,Europe/Amsterdam,2011-04-19,"(4.87976, 51.43258)",2749990
2748532,Poeldonk,Poeldonk,,51.68,5.36667,P,PPL,NL,,06,0845,,,0,,4,Europe/Amsterdam,2007-06-03,"(5.36667, 51.68)",2743993
